[
{
  "model": "risk_profile.education",
  "pk": 9965,
  "fields": {
    "name": "Heavenly Garden Montessori",
    "operator_type": "private",
    "opening_hours": "Su- Fr 9:00-16:00",
    "phone_number": "9846034944  9846036219 9856036219",
    "email_address": "",
    "number_of_employees": "8",
    "number_of_students": "",
    "comments": "",
    "type": "kindergarten",
    "lat": "28.19016518",
    "long": "83.96545205",
    "location": "SRID=4326;POINT (83.96545205 28.19016518)"
  }
},
{
  "model": "risk_profile.education",
  "pk": 9966,
  "fields": {
    "name": "Kids Valley Montessori",
    "operator_type": "private",
    "opening_hours": "",
    "phone_number": "061-461211",
    "email_address": "",
    "number_of_employees": "",
    "number_of_students": "",
    "comments": "",
    "type": "kindergarten",
    "lat": "28.1883932",
    "long": "83.96998095",
    "location": "SRID=4326;POINT (83.96998094999999 28.1883932)"
  }
},
{
  "model": "risk_profile.education",
  "pk": 9967,
  "fields": {
    "name": "Growing Buds Pre-School",
    "operator_type": "",
    "opening_hours": "10:00-16:00",
    "phone_number": "061-526002",
    "email_address": "",
    "number_of_employees": "",
    "number_of_students": "",
    "comments": "",
    "type": "kindergarten",
    "lat": "28.22604638",
    "long": "83.99972515",
    "location": "SRID=4326;POINT (83.99972515 28.22604638)"
  }
},
{
  "model": "risk_profile.education",
  "pk": 9968,
  "fields": {
    "name": "Balbatika Montessori Pre School",
    "operator_type": "private",
    "opening_hours": "",
    "phone_number": "061-534737  9846035744",
    "email_address": "",
    "number_of_employees": "",
    "number_of_students": "",
    "comments": "",
    "type": "kindergarten",
    "lat": "28.2140626",
    "long": "83.98314297",
    "location": "SRID=4326;POINT (83.98314297 28.2140626)"
  }
},
{
  "model": "risk_profile.education",
  "pk": 9969,
  "fields": {
    "name": "My Montessori Pre School",
    "operator_type": "private",
    "opening_hours": "",
    "phone_number": "061-551057  9804109427  9806601880  9806790229",
    "email_address": "mymontessori061@gmail.com",
    "number_of_employees": "",
    "number_of_students": "",
    "comments": "",
    "type": "kindergarten",
    "lat": "28.21440255",
    "long": "83.9836698",
    "location": "SRID=4326;POINT (83.9836698 28.21440255)"
  }
},
{
  "model": "risk_profile.education",
  "pk": 9970,
  "fields": {
    "name": "Akshyar Montessori",
    "operator_type": "private",
    "opening_hours": "",
    "phone_number": "9804180490",
    "email_address": "",
    "number_of_employees": "",
    "number_of_students": "35",
    "comments": "",
    "type": "kindergarten",
    "lat": "28.21568732",
    "long": "83.97927885",
    "location": "SRID=4326;POINT (83.97927885 28.21568732)"
  }
},
{
  "model": "risk_profile.education",
  "pk": 9971,
  "fields": {
    "name": "Small Heaven Montessori",
    "operator_type": "",
    "opening_hours": "",
    "phone_number": "",
    "email_address": "",
    "number_of_employees": "",
    "number_of_students": "",
    "comments": "",
    "type": "kindergarten",
    "lat": "28.21240163",
    "long": "84.00392827",
    "location": "SRID=4326;POINT (84.00392827 28.21240163)"
  }
},
{
  "model": "risk_profile.education",
  "pk": 9972,
  "fields": {
    "name": "Muna Montessori School",
    "operator_type": "private",
    "opening_hours": "",
    "phone_number": "",
    "email_address": "",
    "number_of_employees": "",
    "number_of_students": "",
    "comments": "",
    "type": "kindergarten",
    "lat": "28.23452875",
    "long": "83.98341078",
    "location": "SRID=4326;POINT (83.98341078 28.23452875)"
  }
},
{
  "model": "risk_profile.education",
  "pk": 9973,
  "fields": {
    "name": "Bal Bikas Kendra",
    "operator_type": "",
    "opening_hours": "",
    "phone_number": "",
    "email_address": "",
    "number_of_employees": "",
    "number_of_students": "",
    "comments": "",
    "type": "kindergarten",
    "lat": "28.18784203",
    "long": "84.02626953",
    "location": "SRID=4326;POINT (84.02626952999999 28.18784203)"
  }
},
{
  "model": "risk_profile.education",
  "pk": 9974,
  "fields": {
    "name": "Chhunumunu Kinder Homes",
    "operator_type": "private",
    "opening_hours": "",
    "phone_number": "9856004799",
    "email_address": "",
    "number_of_employees": "",
    "number_of_students": "",
    "comments": "",
    "type": "kindergarten",
    "lat": "28.20796708",
    "long": "83.97606938",
    "location": "SRID=4326;POINT (83.97606938 28.20796708)"
  }
},
{
  "model": "risk_profile.education",
  "pk": 9975,
  "fields": {
    "name": "Bihani Montesory",
    "operator_type": "private",
    "opening_hours": "10:00-16:00",
    "phone_number": "061-525409",
    "email_address": "",
    "number_of_employees": "",
    "number_of_students": "",
    "comments": "",
    "type": "kindergarten",
    "lat": "28.2214438",
    "long": "83.9790097",
    "location": "SRID=4326;POINT (83.97900970000001 28.2214438)"
  }
},
{
  "model": "risk_profile.education",
  "pk": 9976,
  "fields": {
    "name": "Puspa Sadan Acadeny",
    "operator_type": "private",
    "opening_hours": "10:00-17:00",
    "phone_number": "",
    "email_address": "",
    "number_of_employees": "",
    "number_of_students": "",
    "comments": "",
    "type": "kindergarten",
    "lat": "28.2201222",
    "long": "84.0000492",
    "location": "SRID=4326;POINT (84.00004920000001 28.2201222)"
  }
},
{
  "model": "risk_profile.education",
  "pk": 9977,
  "fields": {
    "name": "Kalyan Tatha Surakshya Samiti Diwa Sisu Shayar kendra",
    "operator_type": "",
    "opening_hours": "",
    "phone_number": "",
    "email_address": "",
    "number_of_employees": "",
    "number_of_students": "",
    "comments": "",
    "type": "kindergarten",
    "lat": "28.20758735",
    "long": "84.01100695",
    "location": "SRID=4326;POINT (84.01100695 28.20758735)"
  }
},
{
  "model": "risk_profile.education",
  "pk": 9978,
  "fields": {
    "name": "Angels Montessori Pre-School",
    "operator_type": "private",
    "opening_hours": "",
    "phone_number": "061-463032",
    "email_address": "",
    "number_of_employees": "",
    "number_of_students": "",
    "comments": "",
    "type": "kindergarten",
    "lat": "28.21023413",
    "long": "83.9709399",
    "location": "SRID=4326;POINT (83.9709399 28.21023413)"
  }
},
{
  "model": "risk_profile.education",
  "pk": 9979,
  "fields": {
    "name": "Himalaya Montessori English Bording school",
    "operator_type": "",
    "opening_hours": "",
    "phone_number": "",
    "email_address": "",
    "number_of_employees": "",
    "number_of_students": "",
    "comments": "",
    "type": "kindergarten",
    "lat": "28.19077777",
    "long": "83.9801777",
    "location": "SRID=4326;POINT (83.9801777 28.19077777)"
  }
},
{
  "model": "risk_profile.education",
  "pk": 9980,
  "fields": {
    "name": "Bal Bikas Kendra",
    "operator_type": "government",
    "opening_hours": "",
    "phone_number": "",
    "email_address": "",
    "number_of_employees": "",
    "number_of_students": "",
    "comments": "",
    "type": "kindergarten",
    "lat": "28.19178215",
    "long": "83.98246187",
    "location": "SRID=4326;POINT (83.98246186999999 28.19178215)"
  }
},
{
  "model": "risk_profile.education",
  "pk": 9981,
  "fields": {
    "name": "Hills Bud Montessori School",
    "operator_type": "private",
    "opening_hours": "Su-Th 10:00-16:00  Fr 10:00-13:00",
    "phone_number": "",
    "email_address": "",
    "number_of_employees": "8",
    "number_of_students": "108",
    "comments": "",
    "type": "kindergarten",
    "lat": "28.2143799",
    "long": "84.00731828",
    "location": "SRID=4326;POINT (84.00731828000001 28.2143799)"
  }
},
{
  "model": "risk_profile.education",
  "pk": 9982,
  "fields": {
    "name": "Pokhara Montessori Kinder Home",
    "operator_type": "private",
    "opening_hours": "08:30-17:00",
    "phone_number": "061-442277",
    "email_address": "",
    "number_of_employees": "8",
    "number_of_students": "24",
    "comments": "",
    "type": "kindergarten",
    "lat": "28.24932145",
    "long": "83.9864631",
    "location": "SRID=4326;POINT (83.98646309999999 28.24932145)"
  }
},
{
  "model": "risk_profile.education",
  "pk": 9983,
  "fields": {
    "name": "Safe Kids Pre School",
    "operator_type": "",
    "opening_hours": "",
    "phone_number": "",
    "email_address": "",
    "number_of_employees": "",
    "number_of_students": "",
    "comments": "",
    "type": "kindergarten",
    "lat": "28.219287",
    "long": "83.9887782",
    "location": "SRID=4326;POINT (83.9887782 28.219287)"
  }
},
{
  "model": "risk_profile.education",
  "pk": 9984,
  "fields": {
    "name": "Crystal International Montessori Kinder World",
    "operator_type": "",
    "opening_hours": "",
    "phone_number": "061 461773  9806698277",
    "email_address": "",
    "number_of_employees": "",
    "number_of_students": "",
    "comments": "",
    "type": "kindergarten",
    "lat": "28.20809174",
    "long": "83.96582087",
    "location": "SRID=4326;POINT (83.96582087 28.20809174)"
  }
},
{
  "model": "risk_profile.education",
  "pk": 9985,
  "fields": {
    "name": "New Baby Montessori school",
    "operator_type": "",
    "opening_hours": "",
    "phone_number": "61691060",
    "email_address": "",
    "number_of_employees": "",
    "number_of_students": "",
    "comments": "",
    "type": "kindergarten",
    "lat": "28.24334868",
    "long": "83.98932215",
    "location": "SRID=4326;POINT (83.98932215000001 28.24334868)"
  }
},
{
  "model": "risk_profile.education",
  "pk": 9986,
  "fields": {
    "name": "Jasmine Montessori",
    "operator_type": "private",
    "opening_hours": "",
    "phone_number": "",
    "email_address": "",
    "number_of_employees": "",
    "number_of_students": "",
    "comments": "",
    "type": "kindergarten",
    "lat": "28.22576882",
    "long": "83.99636863",
    "location": "SRID=4326;POINT (83.99636863000001 28.22576882)"
  }
},
{
  "model": "risk_profile.education",
  "pk": 9987,
  "fields": {
    "name": "Child Development Pre-primary Health Care Centre",
    "operator_type": "government",
    "opening_hours": "Su-Fr 10:00-14:00",
    "phone_number": "61465706",
    "email_address": "",
    "number_of_employees": "",
    "number_of_students": "",
    "comments": "",
    "type": "kindergarten",
    "lat": "28.24186256",
    "long": "83.95046945",
    "location": "SRID=4326;POINT (83.95046945 28.24186256)"
  }
},
{
  "model": "risk_profile.education",
  "pk": 9988,
  "fields": {
    "name": "Bindabasini Child Care",
    "operator_type": "private",
    "opening_hours": "",
    "phone_number": "",
    "email_address": "",
    "number_of_employees": "",
    "number_of_students": "",
    "comments": "",
    "type": "kindergarten",
    "lat": "28.23855905",
    "long": "83.98249985",
    "location": "SRID=4326;POINT (83.98249985 28.23855905)"
  }
},
{
  "model": "risk_profile.education",
  "pk": 9989,
  "fields": {
    "name": "Metro Playgroup Section",
    "operator_type": "private",
    "opening_hours": "",
    "phone_number": "061-536045  061-539171",
    "email_address": "",
    "number_of_employees": "",
    "number_of_students": "",
    "comments": "",
    "type": "kindergarten",
    "lat": "28.20914428",
    "long": "83.99885815",
    "location": "SRID=4326;POINT (83.99885815 28.20914428)"
  }
},
{
  "model": "risk_profile.education",
  "pk": 9990,
  "fields": {
    "name": "Emmanuel Montessori",
    "operator_type": "",
    "opening_hours": "",
    "phone_number": "",
    "email_address": "",
    "number_of_employees": "",
    "number_of_students": "",
    "comments": "",
    "type": "kindergarten",
    "lat": "28.18341813",
    "long": "83.99003268",
    "location": "SRID=4326;POINT (83.99003268 28.18341813)"
  }
},
{
  "model": "risk_profile.education",
  "pk": 9991,
  "fields": {
    "name": "Pragma Montessori Home",
    "operator_type": "",
    "opening_hours": "",
    "phone_number": "061-530739  9846024752",
    "email_address": "",
    "number_of_employees": "",
    "number_of_students": "",
    "comments": "",
    "type": "kindergarten",
    "lat": "28.22177262",
    "long": "83.98926037",
    "location": "SRID=4326;POINT (83.98926037 28.22177262)"
  }
},
{
  "model": "risk_profile.education",
  "pk": 9992,
  "fields": {
    "name": "Sakura Montessori And Pre School",
    "operator_type": "private",
    "opening_hours": "",
    "phone_number": "061-432723",
    "email_address": "",
    "number_of_employees": "",
    "number_of_students": "",
    "comments": "",
    "type": "kindergarten",
    "lat": "28.2022841",
    "long": "83.99444742",
    "location": "SRID=4326;POINT (83.99444742 28.2022841)"
  }
},
{
  "model": "risk_profile.education",
  "pk": 9993,
  "fields": {
    "name": "Stuti Trillium Montessori",
    "operator_type": "",
    "opening_hours": "",
    "phone_number": "061-532253  9846084406",
    "email_address": "",
    "number_of_employees": "",
    "number_of_students": "",
    "comments": "",
    "type": "kindergarten",
    "lat": "28.21089952",
    "long": "83.99865531",
    "location": "SRID=4326;POINT (83.99865531 28.21089952)"
  }
},
{
  "model": "risk_profile.education",
  "pk": 9994,
  "fields": {
    "name": "Suvatara 3 Angel Montessory School",
    "operator_type": "",
    "opening_hours": "",
    "phone_number": "061-430298",
    "email_address": "",
    "number_of_employees": "",
    "number_of_students": "",
    "comments": "",
    "type": "kindergarten",
    "lat": "28.20563432",
    "long": "83.99358905",
    "location": "SRID=4326;POINT (83.99358905 28.20563432)"
  }
},
{
  "model": "risk_profile.education",
  "pk": 9995,
  "fields": {
    "name": "Mount Abora Montessori Academy",
    "operator_type": "private",
    "opening_hours": "",
    "phone_number": "061-696491",
    "email_address": "",
    "number_of_employees": "",
    "number_of_students": "",
    "comments": "",
    "type": "kindergarten",
    "lat": "28.2043609",
    "long": "83.99872787",
    "location": "SRID=4326;POINT (83.99872787 28.2043609)"
  }
},
{
  "model": "risk_profile.education",
  "pk": 9996,
  "fields": {
    "name": "Ridgewater Montessori School",
    "operator_type": "private",
    "opening_hours": "",
    "phone_number": "9805894654  061-431395",
    "email_address": "",
    "number_of_employees": "",
    "number_of_students": "",
    "comments": "",
    "type": "kindergarten",
    "lat": "28.20379174",
    "long": "84.00106823",
    "location": "SRID=4326;POINT (84.00106823 28.20379174)"
  }
},
{
  "model": "risk_profile.education",
  "pk": 9997,
  "fields": {
    "name": "Mount Tops Kids Zone",
    "operator_type": "",
    "opening_hours": "",
    "phone_number": "",
    "email_address": "",
    "number_of_employees": "",
    "number_of_students": "",
    "comments": "",
    "type": "kindergarten",
    "lat": "28.21844045",
    "long": "84.03150877",
    "location": "SRID=4326;POINT (84.03150877 28.21844045)"
  }
},
{
  "model": "risk_profile.education",
  "pk": 9998,
  "fields": {
    "name": "Little Leareners Boarding School And Montessori",
    "operator_type": "private",
    "opening_hours": "",
    "phone_number": "61533083",
    "email_address": "Deepu.bhari@gmail.com",
    "number_of_employees": "4",
    "number_of_students": "42",
    "comments": "",
    "type": "kindergarten",
    "lat": "28.23384678",
    "long": "83.98043968",
    "location": "SRID=4326;POINT (83.98043968 28.23384678)"
  }
},
{
  "model": "risk_profile.education",
  "pk": 9999,
  "fields": {
    "name": "Saint Valley Pre School",
    "operator_type": "private",
    "opening_hours": "",
    "phone_number": "61539967",
    "email_address": "Saintvalleym@gmail.com",
    "number_of_employees": "",
    "number_of_students": "42",
    "comments": "",
    "type": "kindergarten",
    "lat": "28.23596683",
    "long": "83.98083903",
    "location": "SRID=4326;POINT (83.98083903 28.23596683)"
  }
},
{
  "model": "risk_profile.education",
  "pk": 10000,
  "fields": {
    "name": "Prime Montessori School",
    "operator_type": "",
    "opening_hours": "",
    "phone_number": "",
    "email_address": "",
    "number_of_employees": "",
    "number_of_students": "",
    "comments": "",
    "type": "kindergarten",
    "lat": "28.23140848",
    "long": "83.99749483",
    "location": "SRID=4326;POINT (83.99749482999999 28.23140848)"
  }
},
{
  "model": "risk_profile.education",
  "pk": 10001,
  "fields": {
    "name": "Holy Kindergarden School",
    "operator_type": "",
    "opening_hours": "",
    "phone_number": "",
    "email_address": "",
    "number_of_employees": "",
    "number_of_students": "",
    "comments": "",
    "type": "kindergarten",
    "lat": "28.22066028",
    "long": "83.99062368",
    "location": "SRID=4326;POINT (83.99062368 28.22066028)"
  }
},
{
  "model": "risk_profile.education",
  "pk": 10002,
  "fields": {
    "name": "Demo Children Homes",
    "operator_type": "",
    "opening_hours": "",
    "phone_number": "",
    "email_address": "",
    "number_of_employees": "",
    "number_of_students": "",
    "comments": "",
    "type": "kindergarten",
    "lat": "28.20000538",
    "long": "83.9895623",
    "location": "SRID=4326;POINT (83.9895623 28.20000538)"
  }
},
{
  "model": "risk_profile.education",
  "pk": 10003,
  "fields": {
    "name": "Shree Montessori Preprimary Child Care Centre",
    "operator_type": "",
    "opening_hours": "",
    "phone_number": "9846112347",
    "email_address": "",
    "number_of_employees": "",
    "number_of_students": "",
    "comments": "",
    "type": "kindergarten",
    "lat": "28.22741595",
    "long": "83.98440567",
    "location": "SRID=4326;POINT (83.98440567 28.22741595)"
  }
},
{
  "model": "risk_profile.education",
  "pk": 10004,
  "fields": {
    "name": "Malepatan Montessori",
    "operator_type": "private",
    "opening_hours": "",
    "phone_number": "61535493",
    "email_address": "",
    "number_of_employees": "",
    "number_of_students": "",
    "comments": "",
    "type": "kindergarten",
    "lat": "28.21543385",
    "long": "83.97793505",
    "location": "SRID=4326;POINT (83.97793505 28.21543385)"
  }
},
{
  "model": "risk_profile.education",
  "pk": 10005,
  "fields": {
    "name": "Little Buds Monteessori",
    "operator_type": "private",
    "opening_hours": "10:00-16:00",
    "phone_number": "",
    "email_address": "",
    "number_of_employees": "",
    "number_of_students": "",
    "comments": "",
    "type": "kindergarten",
    "lat": "28.20251013",
    "long": "83.97416065",
    "location": "SRID=4326;POINT (83.97416065 28.20251013)"
  }
},
{
  "model": "risk_profile.education",
  "pk": 10006,
  "fields": {
    "name": "B.M Montessori Elementary School",
    "operator_type": "private",
    "opening_hours": "",
    "phone_number": "061-528788",
    "email_address": "bmmontessori70@gmail.com",
    "number_of_employees": "",
    "number_of_students": "",
    "comments": "",
    "type": "kindergarten",
    "lat": "28.21928623",
    "long": "84.00013535",
    "location": "SRID=4326;POINT (84.00013534999999 28.21928623)"
  }
},
{
  "model": "risk_profile.education",
  "pk": 10007,
  "fields": {
    "name": "Early Childhood Academy",
    "operator_type": "private",
    "opening_hours": "10:00-15:00",
    "phone_number": "061-550290",
    "email_address": "",
    "number_of_employees": "",
    "number_of_students": "",
    "comments": "",
    "type": "kindergarten",
    "lat": "28.22223077",
    "long": "83.99230275",
    "location": "SRID=4326;POINT (83.99230274999999 28.22223077)"
  }
},
{
  "model": "risk_profile.education",
  "pk": 10008,
  "fields": {
    "name": "Euro Kids Pre-School",
    "operator_type": "private",
    "opening_hours": "Su-Fr 09:30-15:00",
    "phone_number": "061 535948",
    "email_address": "",
    "number_of_employees": "",
    "number_of_students": "",
    "comments": "",
    "type": "kindergarten",
    "lat": "28.2184254",
    "long": "83.98399395",
    "location": "SRID=4326;POINT (83.98399395 28.2184254)"
  }
},
{
  "model": "risk_profile.education",
  "pk": 10009,
  "fields": {
    "name": "Little Stars Pre-School Academy",
    "operator_type": "private",
    "opening_hours": "Mo-Fr 9:30-18:00",
    "phone_number": "9846112347",
    "email_address": "Littlestarspkr@gmail.com",
    "number_of_employees": "",
    "number_of_students": "",
    "comments": "",
    "type": "kindergarten",
    "lat": "28.22775345",
    "long": "83.98366735",
    "location": "SRID=4326;POINT (83.98366735 28.22775345)"
  }
},
{
  "model": "risk_profile.education",
  "pk": 10010,
  "fields": {
    "name": "Pokhara Montessori Kinderhome",
    "operator_type": "private",
    "opening_hours": "",
    "phone_number": "61537879",
    "email_address": "",
    "number_of_employees": "",
    "number_of_students": "",
    "comments": "",
    "type": "kindergarten",
    "lat": "28.2230851",
    "long": "83.9836818",
    "location": "SRID=4326;POINT (83.9836818 28.2230851)"
  }
},
{
  "model": "risk_profile.education",
  "pk": 10011,
  "fields": {
    "name": "Spiral Galaxy Academy",
    "operator_type": "private",
    "opening_hours": "",
    "phone_number": "61528624",
    "email_address": "",
    "number_of_employees": "",
    "number_of_students": "",
    "comments": "",
    "type": "kindergarten",
    "lat": "28.24413468",
    "long": "83.9843319",
    "location": "SRID=4326;POINT (83.9843319 28.24413468)"
  }
},
{
  "model": "risk_profile.education",
  "pk": 10012,
  "fields": {
    "name": "Nawa Jeewan Montessory",
    "operator_type": "private",
    "opening_hours": "",
    "phone_number": "61442150",
    "email_address": "suchi_jiwan00@yahoo.com",
    "number_of_employees": "",
    "number_of_students": "",
    "comments": "",
    "type": "kindergarten",
    "lat": "28.25959526",
    "long": "83.97072613",
    "location": "SRID=4326;POINT (83.97072613 28.25959526)"
  }
},
{
  "model": "risk_profile.education",
  "pk": 10013,
  "fields": {
    "name": "Bluesky Pre-School And Child Care",
    "operator_type": "private",
    "opening_hours": "",
    "phone_number": "061-621260",
    "email_address": "",
    "number_of_employees": "",
    "number_of_students": "",
    "comments": "",
    "type": "kindergarten",
    "lat": "28.18833732",
    "long": "83.97085768",
    "location": "SRID=4326;POINT (83.97085767999999 28.18833732)"
  }
},
{
  "model": "risk_profile.education",
  "pk": 10014,
  "fields": {
    "name": "Holyland Montessori Pre-School",
    "operator_type": "private",
    "opening_hours": "",
    "phone_number": "061-466422",
    "email_address": "",
    "number_of_employees": "",
    "number_of_students": "",
    "comments": "",
    "type": "kindergarten",
    "lat": "28.19184817",
    "long": "83.9724666",
    "location": "SRID=4326;POINT (83.9724666 28.19184817)"
  }
},
{
  "model": "risk_profile.education",
  "pk": 10015,
  "fields": {
    "name": "Kids Home Montessori",
    "operator_type": "private",
    "opening_hours": "",
    "phone_number": "061-534412",
    "email_address": "",
    "number_of_employees": "",
    "number_of_students": "",
    "comments": "",
    "type": "kindergarten",
    "lat": "28.19325542",
    "long": "84.02145926",
    "location": "SRID=4326;POINT (84.02145926 28.19325542)"
  }
},
{
  "model": "risk_profile.education",
  "pk": 10016,
  "fields": {
    "name": "Merryland Kids Montessori",
    "operator_type": "private",
    "opening_hours": "",
    "phone_number": "061-431065",
    "email_address": "",
    "number_of_employees": "",
    "number_of_students": "",
    "comments": "",
    "type": "kindergarten",
    "lat": "28.197115",
    "long": "83.9949955",
    "location": "SRID=4326;POINT (83.9949955 28.197115)"
  }
},
{
  "model": "risk_profile.education",
  "pk": 10017,
  "fields": {
    "name": "Horizon Montessori Homes",
    "operator_type": "private",
    "opening_hours": "",
    "phone_number": "061-695587",
    "email_address": "",
    "number_of_employees": "",
    "number_of_students": "",
    "comments": "",
    "type": "kindergarten",
    "lat": "28.18100459",
    "long": "84.01152522",
    "location": "SRID=4326;POINT (84.01152522 28.18100459)"
  }
},
{
  "model": "risk_profile.education",
  "pk": 10018,
  "fields": {
    "name": "Dreamland Montessori",
    "operator_type": "private",
    "opening_hours": "",
    "phone_number": "061-432120",
    "email_address": "",
    "number_of_employees": "",
    "number_of_students": "",
    "comments": "",
    "type": "kindergarten",
    "lat": "28.20238593",
    "long": "84.0055422",
    "location": "SRID=4326;POINT (84.00554219999999 28.20238593)"
  }
},
{
  "model": "risk_profile.education",
  "pk": 10019,
  "fields": {
    "name": "Children Glory Montessori",
    "operator_type": "",
    "opening_hours": "",
    "phone_number": "61528070",
    "email_address": "",
    "number_of_employees": "12",
    "number_of_students": "90",
    "comments": "",
    "type": "kindergarten",
    "lat": "28.23591939",
    "long": "83.98393426",
    "location": "SRID=4326;POINT (83.98393426 28.23591939)"
  }
},
{
  "model": "risk_profile.education",
  "pk": 10020,
  "fields": {
    "name": "Lakecity Montessori and Academy",
    "operator_type": "private",
    "opening_hours": "",
    "phone_number": "061 411382",
    "email_address": "",
    "number_of_employees": "",
    "number_of_students": "",
    "comments": "",
    "type": "kindergarten",
    "lat": "28.17658355",
    "long": "84.04902143",
    "location": "SRID=4326;POINT (84.04902143 28.17658355)"
  }
},
{
  "model": "risk_profile.education",
  "pk": 10021,
  "fields": {
    "name": "Bhaidam Balbatika",
    "operator_type": "private",
    "opening_hours": "",
    "phone_number": "9846566709  9846087588",
    "email_address": "",
    "number_of_employees": "",
    "number_of_students": "",
    "comments": "",
    "type": "kindergarten",
    "lat": "28.20620156",
    "long": "83.96768426",
    "location": "SRID=4326;POINT (83.96768426 28.20620156)"
  }
},
{
  "model": "risk_profile.education",
  "pk": 10022,
  "fields": {
    "name": "Buddha Montessori",
    "operator_type": "private",
    "opening_hours": "",
    "phone_number": "9846044394",
    "email_address": "",
    "number_of_employees": "",
    "number_of_students": "",
    "comments": "",
    "type": "kindergarten",
    "lat": "28.18940648",
    "long": "83.96903523",
    "location": "SRID=4326;POINT (83.96903523 28.18940648)"
  }
},
{
  "model": "risk_profile.education",
  "pk": 10023,
  "fields": {
    "name": "Balsakha Montessori",
    "operator_type": "private",
    "opening_hours": "Su-Fr 10:00-15:00",
    "phone_number": "",
    "email_address": "",
    "number_of_employees": "",
    "number_of_students": "",
    "comments": "",
    "type": "kindergarten",
    "lat": "28.28082864",
    "long": "83.93160441",
    "location": "SRID=4326;POINT (83.93160441000001 28.28082864)"
  }
},
{
  "model": "risk_profile.education",
  "pk": 10024,
  "fields": {
    "name": "SOS Hermann Gmeiner Kindergarten",
    "operator_type": "private",
    "opening_hours": "",
    "phone_number": "",
    "email_address": "",
    "number_of_employees": "",
    "number_of_students": "",
    "comments": "",
    "type": "kindergarten",
    "lat": "28.18852362",
    "long": "83.95755131",
    "location": "SRID=4326;POINT (83.95755131 28.18852362)"
  }
},
{
  "model": "risk_profile.education",
  "pk": 10025,
  "fields": {
    "name": "Panas Kids World Montessori",
    "operator_type": "private",
    "opening_hours": "",
    "phone_number": "9846756342",
    "email_address": "",
    "number_of_employees": "",
    "number_of_students": "",
    "comments": "",
    "type": "kindergarten",
    "lat": "28.19393935",
    "long": "83.96081843",
    "location": "SRID=4326;POINT (83.96081843 28.19393935)"
  }
},
{
  "model": "risk_profile.education",
  "pk": 10026,
  "fields": {
    "name": "Tender Heart Montessori",
    "operator_type": "private",
    "opening_hours": "10:00-15:00",
    "phone_number": "+977 9811717780  9846855996",
    "email_address": "",
    "number_of_employees": "",
    "number_of_students": "",
    "comments": "",
    "type": "kindergarten",
    "lat": "28.24391588",
    "long": "83.98662954",
    "location": "SRID=4326;POINT (83.98662954 28.24391588)"
  }
},
{
  "model": "risk_profile.education",
  "pk": 10027,
  "fields": {
    "name": "Little Garden Montesori",
    "operator_type": "private",
    "opening_hours": "",
    "phone_number": "9856072254  9846362254",
    "email_address": "",
    "number_of_employees": "",
    "number_of_students": "",
    "comments": "",
    "type": "kindergarten",
    "lat": "28.1655338",
    "long": "84.056241",
    "location": "SRID=4326;POINT (84.056241 28.1655338)"
  }
},
{
  "model": "risk_profile.education",
  "pk": 10028,
  "fields": {
    "name": "Educare Montessori",
    "operator_type": "private",
    "opening_hours": "",
    "phone_number": "061-229688",
    "email_address": "",
    "number_of_employees": "",
    "number_of_students": "",
    "comments": "",
    "type": "kindergarten",
    "lat": "28.2198903",
    "long": "84.0045352",
    "location": "SRID=4326;POINT (84.00453520000001 28.2198903)"
  }
},
{
  "model": "risk_profile.education",
  "pk": 10029,
  "fields": {
    "name": "Fairy Land Montesorri",
    "operator_type": "private",
    "opening_hours": "",
    "phone_number": "061-461349",
    "email_address": "",
    "number_of_employees": "",
    "number_of_students": "",
    "comments": "",
    "type": "kindergarten",
    "lat": "28.2119895",
    "long": "83.9595744",
    "location": "SRID=4326;POINT (83.95957439999999 28.2119895)"
  }
},
{
  "model": "risk_profile.education",
  "pk": 10030,
  "fields": {
    "name": "Apex Pre School",
    "operator_type": "private",
    "opening_hours": "",
    "phone_number": "",
    "email_address": "",
    "number_of_employees": "",
    "number_of_students": "",
    "comments": "",
    "type": "kindergarten",
    "lat": "28.1660966",
    "long": "84.0689585",
    "location": "SRID=4326;POINT (84.06895849999999 28.1660966)"
  }
},
{
  "model": "risk_profile.education",
  "pk": 10031,
  "fields": {
    "name": "Red Gold Montessori",
    "operator_type": "private",
    "opening_hours": "",
    "phone_number": "985621380",
    "email_address": "",
    "number_of_employees": "",
    "number_of_students": "",
    "comments": "",
    "type": "kindergarten",
    "lat": "28.160374",
    "long": "84.0872271",
    "location": "SRID=4326;POINT (84.08722710000001 28.160374)"
  }
},
{
  "model": "risk_profile.education",
  "pk": 10032,
  "fields": {
    "name": "Fulbari Montessori Cottage",
    "operator_type": "private",
    "opening_hours": "",
    "phone_number": "",
    "email_address": "fmcpkr@gmail.com",
    "number_of_employees": "",
    "number_of_students": "",
    "comments": "",
    "type": "kindergarten",
    "lat": "28.231915",
    "long": "83.9908177",
    "location": "SRID=4326;POINT (83.99081769999999 28.231915)"
  }
},
{
  "model": "risk_profile.education",
  "pk": 10033,
  "fields": {
    "name": "Siddhartha Montessori",
    "operator_type": "private",
    "opening_hours": "",
    "phone_number": "",
    "email_address": "siddhartha.edu.np@gmail.com",
    "number_of_employees": "",
    "number_of_students": "",
    "comments": "",
    "type": "kindergarten",
    "lat": "28.2178144",
    "long": "83.9977795",
    "location": "SRID=4326;POINT (83.99777949999999 28.2178144)"
  }
},
{
  "model": "risk_profile.education",
  "pk": 10034,
  "fields": {
    "name": "Star's Montessori Academy",
    "operator_type": "private",
    "opening_hours": "",
    "phone_number": "061 525135",
    "email_address": "",
    "number_of_employees": "",
    "number_of_students": "",
    "comments": "",
    "type": "kindergarten",
    "lat": "28.2268141",
    "long": "83.9907058",
    "location": "SRID=4326;POINT (83.9907058 28.2268141)"
  }
},
{
  "model": "risk_profile.education",
  "pk": 10035,
  "fields": {
    "name": "Well Known Academy",
    "operator_type": "private",
    "opening_hours": "",
    "phone_number": "",
    "email_address": "",
    "number_of_employees": "",
    "number_of_students": "",
    "comments": "",
    "type": "kindergarten",
    "lat": "28.1844882",
    "long": "84.0029468",
    "location": "SRID=4326;POINT (84.0029468 28.1844882)"
  }
},
{
  "model": "risk_profile.education",
  "pk": 10036,
  "fields": {
    "name": "Good Luck Montessori",
    "operator_type": "private",
    "opening_hours": "Su-Th 10:00-14:30  Fr 10:00-13:00",
    "phone_number": "",
    "email_address": "",
    "number_of_employees": "",
    "number_of_students": "",
    "comments": "",
    "type": "kindergarten",
    "lat": "28.2756136",
    "long": "83.9388875",
    "location": "SRID=4326;POINT (83.93888750000001 28.2756136)"
  }
},
{
  "model": "risk_profile.education",
  "pk": 10037,
  "fields": {
    "name": "Shangrila Montessori",
    "operator_type": "private",
    "opening_hours": "",
    "phone_number": "9806505841",
    "email_address": "",
    "number_of_employees": "",
    "number_of_students": "",
    "comments": "",
    "type": "kindergarten",
    "lat": "28.1863973",
    "long": "83.9775597",
    "location": "SRID=4326;POINT (83.9775597 28.1863973)"
  }
},
{
  "model": "risk_profile.education",
  "pk": 10038,
  "fields": {
    "name": "Rainbow Children Home",
    "operator_type": "private",
    "opening_hours": "",
    "phone_number": "",
    "email_address": "",
    "number_of_employees": "",
    "number_of_students": "",
    "comments": "",
    "type": "kindergarten",
    "lat": "28.2136503",
    "long": "83.9623027",
    "location": "SRID=4326;POINT (83.9623027 28.2136503)"
  }
},
{
  "model": "risk_profile.education",
  "pk": 10039,
  "fields": {
    "name": "Global Bal Batika Montessori Pre- School",
    "operator_type": "private",
    "opening_hours": "",
    "phone_number": "",
    "email_address": "",
    "number_of_employees": "",
    "number_of_students": "",
    "comments": "",
    "type": "kindergarten",
    "lat": "28.2184857",
    "long": "83.9973785",
    "location": "SRID=4326;POINT (83.9973785 28.2184857)"
  }
},
{
  "model": "risk_profile.education",
  "pk": 10040,
  "fields": {
    "name": "Motherland Higher Secondary School",
    "operator_type": "private",
    "opening_hours": "Su-Th 10:00-16:00  Fr 10:00-13:00",
    "phone_number": "",
    "email_address": "",
    "number_of_employees": "104",
    "number_of_students": "4411",
    "comments": "",
    "type": "school",
    "lat": "28.21159982",
    "long": "83.97183611",
    "location": "SRID=4326;POINT (83.97183611 28.21159982)"
  }
},
{
  "model": "risk_profile.education",
  "pk": 10041,
  "fields": {
    "name": "Prativa Higher Secondary School",
    "operator_type": "private",
    "opening_hours": "Su-Th 10:00-16:00  Fr 10:00-13:00",
    "phone_number": "61521546",
    "email_address": "",
    "number_of_employees": "",
    "number_of_students": "",
    "comments": "",
    "type": "school",
    "lat": "28.22640136",
    "long": "83.99152845",
    "location": "SRID=4326;POINT (83.99152845 28.22640136)"
  }
},
{
  "model": "risk_profile.education",
  "pk": 10042,
  "fields": {
    "name": "Karunanidhi Education Foundation(KEF) Secondary School",
    "operator_type": "private",
    "opening_hours": "06:00-17:00",
    "phone_number": "061-523259 061-412268 061-412409",
    "email_address": "",
    "number_of_employees": "70",
    "number_of_students": "1400",
    "comments": "",
    "type": "school",
    "lat": "28.24482741",
    "long": "83.98479793",
    "location": "SRID=4326;POINT (83.98479793 28.24482741)"
  }
},
{
  "model": "risk_profile.education",
  "pk": 10043,
  "fields": {
    "name": "Sishu Kalyan English Boarding School",
    "operator_type": "private",
    "opening_hours": "Su-Th 10:00-16:00  Fr 10:00-13:00",
    "phone_number": "061-461896",
    "email_address": "skes461896@gmail.com",
    "number_of_employees": "22",
    "number_of_students": "690",
    "comments": "",
    "type": "school",
    "lat": "28.18907217",
    "long": "83.95458622",
    "location": "SRID=4326;POINT (83.95458622 28.18907217)"
  }
},
{
  "model": "risk_profile.education",
  "pk": 10044,
  "fields": {
    "name": "LP Devkota English School",
    "operator_type": "private",
    "opening_hours": "09:00-17:00",
    "phone_number": "",
    "email_address": "",
    "number_of_employees": "28",
    "number_of_students": "389",
    "comments": "",
    "type": "school",
    "lat": "28.19178694",
    "long": "83.96671523",
    "location": "SRID=4326;POINT (83.96671523000001 28.19178694)"
  }
},
{
  "model": "risk_profile.education",
  "pk": 10045,
  "fields": {
    "name": "Junior Citizens Academy Higher Sceondary School",
    "operator_type": "private",
    "opening_hours": "Su-Th 10:00-16:00  Fr 10:00-13:00",
    "phone_number": "061 411398  411503",
    "email_address": "",
    "number_of_employees": "54",
    "number_of_students": "1523",
    "comments": "",
    "type": "school",
    "lat": "28.18153501",
    "long": "84.03972566",
    "location": "SRID=4326;POINT (84.03972566 28.18153501)"
  }
},
{
  "model": "risk_profile.education",
  "pk": 10046,
  "fields": {
    "name": "Sublime Secondary School",
    "operator_type": "private",
    "opening_hours": "Su-Th 10:00-16:00  Fr 10:00-13:00",
    "phone_number": "",
    "email_address": "",
    "number_of_employees": "29",
    "number_of_students": "746",
    "comments": "",
    "type": "school",
    "lat": "28.20431653",
    "long": "83.97553372",
    "location": "SRID=4326;POINT (83.97553372 28.20431653)"
  }
},
{
  "model": "risk_profile.education",
  "pk": 10047,
  "fields": {
    "name": "SOS Hermann Gmeiner English Boarding School",
    "operator_type": "private",
    "opening_hours": "Su-Fr 10:00-16:00",
    "phone_number": "61430569",
    "email_address": "info@soshgsgandaki.edu.np",
    "number_of_employees": "56",
    "number_of_students": "1394",
    "comments": "",
    "type": "school",
    "lat": "28.20148335",
    "long": "83.98732993",
    "location": "SRID=4326;POINT (83.98732993 28.20148335)"
  }
},
{
  "model": "risk_profile.education",
  "pk": 10048,
  "fields": {
    "name": "Tal Barahi Ma V",
    "operator_type": "government",
    "opening_hours": "09:00-17:00",
    "phone_number": "9846044437",
    "email_address": "",
    "number_of_employees": "21",
    "number_of_students": "1116",
    "comments": "",
    "type": "school",
    "lat": "28.21134455",
    "long": "83.96229395",
    "location": "SRID=4326;POINT (83.96229395 28.21134455)"
  }
},
{
  "model": "risk_profile.education",
  "pk": 10049,
  "fields": {
    "name": "Ekata Secondary School",
    "operator_type": "private",
    "opening_hours": "Su-Th 10:00-16:00  Fr 10:00-13:00",
    "phone_number": "061-5201871",
    "email_address": "",
    "number_of_employees": "18",
    "number_of_students": "532",
    "comments": "",
    "type": "school",
    "lat": "28.22413981",
    "long": "83.98064044",
    "location": "SRID=4326;POINT (83.98064044 28.22413981)"
  }
},
{
  "model": "risk_profile.education",
  "pk": 10050,
  "fields": {
    "name": "Nilgiri Boarding School",
    "operator_type": "private",
    "opening_hours": "Su-Th 10:00-16:00  Fr 10:00-13:00",
    "phone_number": "9846026557",
    "email_address": "",
    "number_of_employees": "31",
    "number_of_students": "1209",
    "comments": "",
    "type": "school",
    "lat": "28.22502326",
    "long": "83.98430422",
    "location": "SRID=4326;POINT (83.98430422 28.22502326)"
  }
},
{
  "model": "risk_profile.education",
  "pk": 10051,
  "fields": {
    "name": "Kumudini Homes",
    "operator_type": "private",
    "opening_hours": "Su-Th 10:00-16:00  Fr 10:00-13:00",
    "phone_number": "61525390",
    "email_address": "",
    "number_of_employees": "69",
    "number_of_students": "1338",
    "comments": "",
    "type": "school",
    "lat": "28.22721575",
    "long": "83.9884398",
    "location": "SRID=4326;POINT (83.98843979999999 28.22721575)"
  }
},
{
  "model": "risk_profile.education",
  "pk": 10052,
  "fields": {
    "name": "Balmandir Ma V",
    "operator_type": "government",
    "opening_hours": "Su-Th 10:00-16:00  Fr 10:00-13:00",
    "phone_number": "061-521082",
    "email_address": "",
    "number_of_employees": "37",
    "number_of_students": "2126",
    "comments": "",
    "type": "school",
    "lat": "28.23359678",
    "long": "83.99063148",
    "location": "SRID=4326;POINT (83.99063148 28.23359678)"
  }
},
{
  "model": "risk_profile.education",
  "pk": 10053,
  "fields": {
    "name": "Tarapunja Education Academy",
    "operator_type": "private",
    "opening_hours": "Su-Th 10:00-16:00  Fr 10:00-13:00",
    "phone_number": "9856021534",
    "email_address": "",
    "number_of_employees": "22",
    "number_of_students": "539",
    "comments": "",
    "type": "school",
    "lat": "28.23566383",
    "long": "83.98725763",
    "location": "SRID=4326;POINT (83.98725763 28.23566383)"
  }
},
{
  "model": "risk_profile.education",
  "pk": 10054,
  "fields": {
    "name": "Mt. Annapurna Higher Secondary School",
    "operator_type": "private",
    "opening_hours": "Su-Th 10:00-16:00  Fr 10:00-13:00",
    "phone_number": "061-520718  531176  522946",
    "email_address": "",
    "number_of_employees": "32",
    "number_of_students": "450",
    "comments": "",
    "type": "school",
    "lat": "28.23118137",
    "long": "83.98599799",
    "location": "SRID=4326;POINT (83.98599799 28.23118137)"
  }
},
{
  "model": "risk_profile.education",
  "pk": 10055,
  "fields": {
    "name": "Barahi Ma V",
    "operator_type": "government",
    "opening_hours": "Su-Th 10:00-16:00  Fr 10:00-13:00",
    "phone_number": "061 419360",
    "email_address": "",
    "number_of_employees": "26",
    "number_of_students": "910",
    "comments": "",
    "type": "school",
    "lat": "28.21815924",
    "long": "83.97599423",
    "location": "SRID=4326;POINT (83.97599423 28.21815924)"
  }
},
{
  "model": "risk_profile.education",
  "pk": 10056,
  "fields": {
    "name": "Indra Rajya Laxmi Ma V",
    "operator_type": "government",
    "opening_hours": "09:55-16:05",
    "phone_number": "061-440988",
    "email_address": "",
    "number_of_employees": "16",
    "number_of_students": "1329",
    "comments": "",
    "type": "school",
    "lat": "28.26143878",
    "long": "83.9734257",
    "location": "SRID=4326;POINT (83.97342570000001 28.26143878)"
  }
},
{
  "model": "risk_profile.education",
  "pk": 10057,
  "fields": {
    "name": "Amar Singh Ma V",
    "operator_type": "government",
    "opening_hours": "Su-Th 10:00-16:00  Fr 10:00-13:00",
    "phone_number": "9846032174",
    "email_address": "",
    "number_of_employees": "94",
    "number_of_students": "5193",
    "comments": "",
    "type": "school",
    "lat": "28.20816276",
    "long": "84.00143439",
    "location": "SRID=4326;POINT (84.00143439 28.20816276)"
  }
},
{
  "model": "risk_profile.education",
  "pk": 10058,
  "fields": {
    "name": "Bhaskar Memorial School",
    "operator_type": "private",
    "opening_hours": "Su-Fr 10:00- 16:00",
    "phone_number": "061-525504  528374",
    "email_address": "",
    "number_of_employees": "42",
    "number_of_students": "1223",
    "comments": "",
    "type": "school",
    "lat": "28.22753174",
    "long": "83.99684152",
    "location": "SRID=4326;POINT (83.99684152 28.22753174)"
  }
},
{
  "model": "risk_profile.education",
  "pk": 10059,
  "fields": {
    "name": "Co-Ordinator Academy",
    "operator_type": "private",
    "opening_hours": "Su-Th 10:00-16:00  Fr 10:00-13:00",
    "phone_number": "",
    "email_address": "",
    "number_of_employees": "",
    "number_of_students": "",
    "comments": "",
    "type": "school",
    "lat": "28.23278943",
    "long": "83.99653543",
    "location": "SRID=4326;POINT (83.99653542999999 28.23278943)"
  }
},
{
  "model": "risk_profile.education",
  "pk": 10060,
  "fields": {
    "name": "Global Collegiate Higher Sceondary School",
    "operator_type": "private",
    "opening_hours": "Su-Th 10:00-16:00  Fr 10:00-13:00",
    "phone_number": "97761524604",
    "email_address": "",
    "number_of_employees": "76",
    "number_of_students": "1099",
    "comments": "",
    "type": "school",
    "lat": "28.21765457",
    "long": "83.99921352",
    "location": "SRID=4326;POINT (83.99921352 28.21765457)"
  }
},
{
  "model": "risk_profile.education",
  "pk": 10061,
  "fields": {
    "name": "Sidda Ma V",
    "operator_type": "government",
    "opening_hours": "06:00-04:00",
    "phone_number": "061-430903",
    "email_address": "",
    "number_of_employees": "17",
    "number_of_students": "444",
    "comments": "",
    "type": "school",
    "lat": "28.19051629",
    "long": "83.99942394",
    "location": "SRID=4326;POINT (83.99942394 28.19051629)"
  }
},
{
  "model": "risk_profile.education",
  "pk": 10062,
  "fields": {
    "name": "Rameshwori Ma V",
    "operator_type": "government",
    "opening_hours": "Su-Th 10:00-16:00  Fr 10:00-13:00",
    "phone_number": "9856029681",
    "email_address": "",
    "number_of_employees": "17",
    "number_of_students": "651",
    "comments": "",
    "type": "school",
    "lat": "28.17743756",
    "long": "84.02294102",
    "location": "SRID=4326;POINT (84.02294102 28.17743756)"
  }
},
{
  "model": "risk_profile.education",
  "pk": 10063,
  "fields": {
    "name": "Bhadrakali Ma V",
    "operator_type": "government",
    "opening_hours": "Su-Th 10:00-16:00  Fr 10:00-13:00",
    "phone_number": "9846037733",
    "email_address": "",
    "number_of_employees": "42",
    "number_of_students": "1272",
    "comments": "",
    "type": "school",
    "lat": "28.21360632",
    "long": "84.01153221",
    "location": "SRID=4326;POINT (84.01153221 28.21360632)"
  }
},
{
  "model": "risk_profile.education",
  "pk": 10064,
  "fields": {
    "name": "Gaurishankar Ma V",
    "operator_type": "government",
    "opening_hours": "Su-Th 10:00-16:00  Fr 10:00-13:00",
    "phone_number": "9856019319",
    "email_address": "",
    "number_of_employees": "13",
    "number_of_students": "1089",
    "comments": "",
    "type": "school",
    "lat": "28.27859006",
    "long": "83.93977641",
    "location": "SRID=4326;POINT (83.93977640999999 28.27859006)"
  }
},
{
  "model": "risk_profile.education",
  "pk": 10065,
  "fields": {
    "name": "Western Gandaki Academy",
    "operator_type": "private",
    "opening_hours": "Su-Th 10:00-16:00  Fr 10:00-13:00",
    "phone_number": "",
    "email_address": "",
    "number_of_employees": "6",
    "number_of_students": "51",
    "comments": "",
    "type": "school",
    "lat": "28.2905307",
    "long": "83.95073774",
    "location": "SRID=4326;POINT (83.95073773999999 28.2905307)"
  }
},
{
  "model": "risk_profile.education",
  "pk": 10066,
  "fields": {
    "name": "Shree Krishna Ma V",
    "operator_type": "government",
    "opening_hours": "Su-Th 10:00-16:00  Fr 10:00-13:00",
    "phone_number": "9846147675",
    "email_address": "",
    "number_of_employees": "24",
    "number_of_students": "821",
    "comments": "",
    "type": "school",
    "lat": "28.20971781",
    "long": "83.97287664",
    "location": "SRID=4326;POINT (83.97287664 28.20971781)"
  }
},
{
  "model": "risk_profile.education",
  "pk": 10067,
  "fields": {
    "name": "Kundahar Basic School",
    "operator_type": "government",
    "opening_hours": "Su-Th 10:00-16:00  Fr 10:00-13:00",
    "phone_number": "9846361677",
    "email_address": "",
    "number_of_employees": "7",
    "number_of_students": "241",
    "comments": "",
    "type": "school",
    "lat": "28.20472382",
    "long": "84.00614292",
    "location": "SRID=4326;POINT (84.00614292 28.20472382)"
  }
},
{
  "model": "risk_profile.education",
  "pk": 10068,
  "fields": {
    "name": "Ratna Basic School",
    "operator_type": "government",
    "opening_hours": "Su-Th 10:00-16:00  Fr 10:00-13:00",
    "phone_number": "+977 9846037937",
    "email_address": "",
    "number_of_employees": "11",
    "number_of_students": "254",
    "comments": "",
    "type": "school",
    "lat": "28.24933828",
    "long": "83.9777693",
    "location": "SRID=4326;POINT (83.97776930000001 28.24933828)"
  }
},
{
  "model": "risk_profile.education",
  "pk": 10069,
  "fields": {
    "name": "Pokhara Academy (Primary Level)",
    "operator_type": "private",
    "opening_hours": "Su-Th 10:00-16:00  Fr 10:00-13:00",
    "phone_number": "9846778188",
    "email_address": "",
    "number_of_employees": "33",
    "number_of_students": "811",
    "comments": "",
    "type": "school",
    "lat": "28.26384771",
    "long": "83.98032335",
    "location": "SRID=4326;POINT (83.98032335000001 28.26384771)"
  }
},
{
  "model": "risk_profile.education",
  "pk": 10070,
  "fields": {
    "name": "Pragati English Boarding School",
    "operator_type": "private",
    "opening_hours": "09:00-17:00",
    "phone_number": "061-440204",
    "email_address": "pragatischool.pokhara@gmail.com",
    "number_of_employees": "78",
    "number_of_students": "1150",
    "comments": "",
    "type": "school",
    "lat": "28.26504227",
    "long": "83.97778216",
    "location": "SRID=4326;POINT (83.97778216 28.26504227)"
  }
},
{
  "model": "risk_profile.education",
  "pk": 10071,
  "fields": {
    "name": "New Model Academy",
    "operator_type": "private",
    "opening_hours": "Su-Th 10:00-16:00  Fr 10:00-13:00",
    "phone_number": "",
    "email_address": "",
    "number_of_employees": "20",
    "number_of_students": "443",
    "comments": "",
    "type": "school",
    "lat": "28.20687448",
    "long": "83.98051855",
    "location": "SRID=4326;POINT (83.98051855 28.20687448)"
  }
},
{
  "model": "risk_profile.education",
  "pk": 10072,
  "fields": {
    "name": "Pokhara Academy (Seondary Level)",
    "operator_type": "private",
    "opening_hours": "Su-Th 10:00-16:00  Fr 10:00-13:00",
    "phone_number": "9846778188",
    "email_address": "",
    "number_of_employees": "33",
    "number_of_students": "811",
    "comments": "",
    "type": "school",
    "lat": "28.26092807",
    "long": "83.98781881",
    "location": "SRID=4326;POINT (83.98781880999999 28.26092807)"
  }
},
{
  "model": "risk_profile.education",
  "pk": 10073,
  "fields": {
    "name": "Rastriya Ma V",
    "operator_type": "government",
    "opening_hours": "Su-Th 10:00-16:00  Fr 10:00-13:00",
    "phone_number": "061-520271",
    "email_address": "",
    "number_of_employees": "31",
    "number_of_students": "3022",
    "comments": "",
    "type": "school",
    "lat": "28.24180182",
    "long": "83.98462648",
    "location": "SRID=4326;POINT (83.98462648 28.24180182)"
  }
},
{
  "model": "risk_profile.education",
  "pk": 10074,
  "fields": {
    "name": "Alpha Boarding School",
    "operator_type": "private",
    "opening_hours": "10:00-16:00",
    "phone_number": "061-440319",
    "email_address": "alphabs2045@gmail.com",
    "number_of_employees": "27",
    "number_of_students": "701",
    "comments": "",
    "type": "school",
    "lat": "28.26249064",
    "long": "83.97386214",
    "location": "SRID=4326;POINT (83.97386213999999 28.26249064)"
  }
},
{
  "model": "risk_profile.education",
  "pk": 10075,
  "fields": {
    "name": "Little Step Higher Secondary School",
    "operator_type": "private",
    "opening_hours": "Su-Th 10:00-16:00  Fr 10:00-13:00",
    "phone_number": "",
    "email_address": "",
    "number_of_employees": "11",
    "number_of_students": "92",
    "comments": "",
    "type": "school",
    "lat": "28.24371075",
    "long": "83.9899357",
    "location": "SRID=4326;POINT (83.9899357 28.24371075)"
  }
},
{
  "model": "risk_profile.education",
  "pk": 10076,
  "fields": {
    "name": "Bishnu Padhukaa Ma V",
    "operator_type": "government",
    "opening_hours": "Su-Th 10:00-16:00  Fr 10:00-13:00",
    "phone_number": "9846059307",
    "email_address": "",
    "number_of_employees": "21",
    "number_of_students": "788",
    "comments": "",
    "type": "school",
    "lat": "28.26898232",
    "long": "83.9505435",
    "location": "SRID=4326;POINT (83.95054349999999 28.26898232)"
  }
},
{
  "model": "risk_profile.education",
  "pk": 10077,
  "fields": {
    "name": "Gyanodaya Boarding School",
    "operator_type": "private",
    "opening_hours": "Su-Th 10:00-16:00  Fr 10:00-13:00",
    "phone_number": "9846061046",
    "email_address": "",
    "number_of_employees": "13",
    "number_of_students": "91",
    "comments": "",
    "type": "school",
    "lat": "28.21309125",
    "long": "83.9606995",
    "location": "SRID=4326;POINT (83.9606995 28.21309125)"
  }
},
{
  "model": "risk_profile.education",
  "pk": 10078,
  "fields": {
    "name": "Shishu Niketan Higher Secondary School",
    "operator_type": "private",
    "opening_hours": "Su-Fr 10:00-16:00",
    "phone_number": "061-461598  460601  460603",
    "email_address": "shishuniketan2040@gmail.com",
    "number_of_employees": "51",
    "number_of_students": "2334",
    "comments": "",
    "type": "school",
    "lat": "28.19050068",
    "long": "83.97323725",
    "location": "SRID=4326;POINT (83.97323725 28.19050068)"
  }
},
{
  "model": "risk_profile.education",
  "pk": 10079,
  "fields": {
    "name": "Balodaya Higher Secondary School",
    "operator_type": "private",
    "opening_hours": "Su- Fr 5:00-17:00",
    "phone_number": "061-461442",
    "email_address": "info@bebs.edu.np",
    "number_of_employees": "38",
    "number_of_students": "1088",
    "comments": "",
    "type": "school",
    "lat": "28.18947924",
    "long": "83.96758897",
    "location": "SRID=4326;POINT (83.96758896999999 28.18947924)"
  }
},
{
  "model": "risk_profile.education",
  "pk": 10080,
  "fields": {
    "name": "Shanti Deep English Boarding School",
    "operator_type": "private",
    "opening_hours": "Su-Th 10:00-16:00  Fr 10:00-13:00",
    "phone_number": "",
    "email_address": "",
    "number_of_employees": "20",
    "number_of_students": "616",
    "comments": "",
    "type": "school",
    "lat": "28.17504258",
    "long": "84.02660465",
    "location": "SRID=4326;POINT (84.02660465 28.17504258)"
  }
},
{
  "model": "risk_profile.education",
  "pk": 10081,
  "fields": {
    "name": "Great Compassion Boarding School",
    "operator_type": "private",
    "opening_hours": "Su-Th 10:00-16:00  Fr 10:00-13:00",
    "phone_number": "",
    "email_address": "",
    "number_of_employees": "",
    "number_of_students": "",
    "comments": "",
    "type": "school",
    "lat": "28.23049924",
    "long": "83.94871489",
    "location": "SRID=4326;POINT (83.94871489000001 28.23049924)"
  }
},
{
  "model": "risk_profile.education",
  "pk": 10082,
  "fields": {
    "name": "Makanna Devi Basic School",
    "operator_type": "government",
    "opening_hours": "Su-Th 10:00-16:00  Fr 10:00-13:00",
    "phone_number": "9805806026",
    "email_address": "",
    "number_of_employees": "2",
    "number_of_students": "23",
    "comments": "",
    "type": "school",
    "lat": "28.22945084",
    "long": "83.85165438",
    "location": "SRID=4326;POINT (83.85165438 28.22945084)"
  }
},
{
  "model": "risk_profile.education",
  "pk": 10083,
  "fields": {
    "name": "Rainbow Academic Homes Higher Secondary",
    "operator_type": "private",
    "opening_hours": "10:00-16:00",
    "phone_number": "061-430557",
    "email_address": "",
    "number_of_employees": "44",
    "number_of_students": "1655",
    "comments": "",
    "type": "school",
    "lat": "28.19378582",
    "long": "83.99598941",
    "location": "SRID=4326;POINT (83.99598941000001 28.19378582)"
  }
},
{
  "model": "risk_profile.education",
  "pk": 10084,
  "fields": {
    "name": "Jana Jagriti Basic School",
    "operator_type": "government",
    "opening_hours": "Su-Th 10:00-16:00  Fr 10:00-13:00",
    "phone_number": "9846282998",
    "email_address": "",
    "number_of_employees": "11",
    "number_of_students": "139",
    "comments": "",
    "type": "school",
    "lat": "28.10154248",
    "long": "84.06422485",
    "location": "SRID=4326;POINT (84.06422485 28.10154248)"
  }
},
{
  "model": "risk_profile.education",
  "pk": 10085,
  "fields": {
    "name": "Dhawalagiri Boarding School",
    "operator_type": "private",
    "opening_hours": "Su-Th 10:00-16:00  Fr 10:00-13:00",
    "phone_number": "",
    "email_address": "",
    "number_of_employees": "41",
    "number_of_students": "1040",
    "comments": "",
    "type": "school",
    "lat": "28.28048617",
    "long": "83.93644408",
    "location": "SRID=4326;POINT (83.93644408 28.28048617)"
  }
},
{
  "model": "risk_profile.education",
  "pk": 10086,
  "fields": {
    "name": "Dharmasthali Basic School",
    "operator_type": "government",
    "opening_hours": "10:00-16:00",
    "phone_number": "061-419079",
    "email_address": "",
    "number_of_employees": "14",
    "number_of_students": "748",
    "comments": "",
    "type": "school",
    "lat": "28.2229496",
    "long": "83.97845909",
    "location": "SRID=4326;POINT (83.97845909 28.2229496)"
  }
},
{
  "model": "risk_profile.education",
  "pk": 10087,
  "fields": {
    "name": "Amar Jyoti Boarding School",
    "operator_type": "private",
    "opening_hours": "Su-Th 10:00-16:00  Fr 10:00-13:00",
    "phone_number": "-526064",
    "email_address": "amarjyotipokhara@gmail.com",
    "number_of_employees": "14",
    "number_of_students": "400",
    "comments": "",
    "type": "school",
    "lat": "28.21443913",
    "long": "83.97960317",
    "location": "SRID=4326;POINT (83.97960317 28.21443913)"
  }
},
{
  "model": "risk_profile.education",
  "pk": 10088,
  "fields": {
    "name": "National Inventive Higher Secondary Boarding School",
    "operator_type": "private",
    "opening_hours": "09:00-17:00",
    "phone_number": "9856049421",
    "email_address": "",
    "number_of_employees": "38",
    "number_of_students": "1088",
    "comments": "",
    "type": "school",
    "lat": "28.20983774",
    "long": "83.96296051",
    "location": "SRID=4326;POINT (83.96296051 28.20983774)"
  }
},
{
  "model": "risk_profile.education",
  "pk": 10089,
  "fields": {
    "name": "Little Step Secondary School",
    "operator_type": "private",
    "opening_hours": "6:00-18:00",
    "phone_number": "061-531964  061-525103",
    "email_address": "lsiacademy@wlink.com.np",
    "number_of_employees": "26",
    "number_of_students": "790",
    "comments": "",
    "type": "school",
    "lat": "28.20972547",
    "long": "83.97537753",
    "location": "SRID=4326;POINT (83.97537753 28.20972547)"
  }
},
{
  "model": "risk_profile.education",
  "pk": 10090,
  "fields": {
    "name": "Janajyoti Ma V",
    "operator_type": "government",
    "opening_hours": "Su-Th 10:00-16:00  Fr 10:00-13:00",
    "phone_number": "9846147538",
    "email_address": "",
    "number_of_employees": "13",
    "number_of_students": "358",
    "comments": "",
    "type": "school",
    "lat": "28.21412566",
    "long": "84.07559002",
    "location": "SRID=4326;POINT (84.07559002000001 28.21412566)"
  }
},
{
  "model": "risk_profile.education",
  "pk": 10091,
  "fields": {
    "name": "Lotus Academy",
    "operator_type": "private",
    "opening_hours": "Su-Th 10:00-16:00  Fr 10:00-13:00",
    "phone_number": "061-521919  061-528086",
    "email_address": "",
    "number_of_employees": "6",
    "number_of_students": "287",
    "comments": "",
    "type": "school",
    "lat": "28.22056626",
    "long": "83.98944352",
    "location": "SRID=4326;POINT (83.98944351999999 28.22056626)"
  }
},
{
  "model": "risk_profile.education",
  "pk": 10092,
  "fields": {
    "name": "Nawa Prabhat Ma V",
    "operator_type": "government",
    "opening_hours": "Su-Th 10:00-16:00  Fr 10:00-13:00",
    "phone_number": "9856044426",
    "email_address": "",
    "number_of_employees": "22",
    "number_of_students": "734",
    "comments": "",
    "type": "school",
    "lat": "28.2174521",
    "long": "83.99180704",
    "location": "SRID=4326;POINT (83.99180704 28.2174521)"
  }
},
{
  "model": "risk_profile.education",
  "pk": 10093,
  "fields": {
    "name": "Devi Basic School",
    "operator_type": "government",
    "opening_hours": "Su-Th 10:00-16:00  Fr 10:00-13:00",
    "phone_number": "9846050468",
    "email_address": "",
    "number_of_employees": "4",
    "number_of_students": "63",
    "comments": "",
    "type": "school",
    "lat": "28.26255637",
    "long": "84.00964487",
    "location": "SRID=4326;POINT (84.00964487 28.26255637)"
  }
},
{
  "model": "risk_profile.education",
  "pk": 10094,
  "fields": {
    "name": "Himanchal Higher Secondary School",
    "operator_type": "private",
    "opening_hours": "Su-Th 10:00-16:00  Fr 10:00-13:00",
    "phone_number": "9856020864",
    "email_address": "",
    "number_of_employees": "27",
    "number_of_students": "661",
    "comments": "",
    "type": "school",
    "lat": "28.2017375",
    "long": "83.9744477",
    "location": "SRID=4326;POINT (83.9744477 28.2017375)"
  }
},
{
  "model": "risk_profile.education",
  "pk": 10095,
  "fields": {
    "name": "Tops Higher Secondary School",
    "operator_type": "private",
    "opening_hours": "Su-Fr 10:00-16:00",
    "phone_number": "061-528382",
    "email_address": "",
    "number_of_employees": "53",
    "number_of_students": "1083",
    "comments": "",
    "type": "school",
    "lat": "28.20978491",
    "long": "83.99551887",
    "location": "SRID=4326;POINT (83.99551887 28.20978491)"
  }
},
{
  "model": "risk_profile.education",
  "pk": 10096,
  "fields": {
    "name": "Jyoti Bhawan Basic School",
    "operator_type": "government",
    "opening_hours": "10:00-16:00",
    "phone_number": "9846717287",
    "email_address": "",
    "number_of_employees": "14",
    "number_of_students": "44",
    "comments": "",
    "type": "school",
    "lat": "28.29725708",
    "long": "83.99406268",
    "location": "SRID=4326;POINT (83.99406268 28.29725708)"
  }
},
{
  "model": "risk_profile.education",
  "pk": 10097,
  "fields": {
    "name": "Shanti Ma V",
    "operator_type": "government",
    "opening_hours": "Su-Th 10:00-16:00  Fr 10:00-13:00",
    "phone_number": "9846059539",
    "email_address": "",
    "number_of_employees": "22",
    "number_of_students": "524",
    "comments": "",
    "type": "school",
    "lat": "28.28487734",
    "long": "83.98544628",
    "location": "SRID=4326;POINT (83.98544628000001 28.28487734)"
  }
},
{
  "model": "risk_profile.education",
  "pk": 10098,
  "fields": {
    "name": "Himalayan Basic School",
    "operator_type": "government",
    "opening_hours": "Su-Th 10:00-16:00  Fr 10:00-13:00",
    "phone_number": "9856031527",
    "email_address": "",
    "number_of_employees": "4",
    "number_of_students": "108",
    "comments": "",
    "type": "school",
    "lat": "28.3176394",
    "long": "83.96270527",
    "location": "SRID=4326;POINT (83.96270527 28.3176394)"
  }
},
{
  "model": "risk_profile.education",
  "pk": 10099,
  "fields": {
    "name": "Paramount Public School",
    "operator_type": "private",
    "opening_hours": "Su-Fr 10:00-16:00",
    "phone_number": "061-527365",
    "email_address": "",
    "number_of_employees": "31",
    "number_of_students": "881",
    "comments": "",
    "type": "school",
    "lat": "28.20836762",
    "long": "83.99810613",
    "location": "SRID=4326;POINT (83.99810613 28.20836762)"
  }
},
{
  "model": "risk_profile.education",
  "pk": 10100,
  "fields": {
    "name": "Pokhara United Academy",
    "operator_type": "private",
    "opening_hours": "Su-Th 10:00-16:00  Fr 10:00-13:00",
    "phone_number": "061-550491",
    "email_address": "",
    "number_of_employees": "37",
    "number_of_students": "926",
    "comments": "",
    "type": "school",
    "lat": "28.2112208",
    "long": "84.00595713",
    "location": "SRID=4326;POINT (84.00595713 28.2112208)"
  }
},
{
  "model": "risk_profile.education",
  "pk": 10101,
  "fields": {
    "name": "New Galaxy Higher Secondary school",
    "operator_type": "private",
    "opening_hours": "Su-Th 10:00-16:00  Fr 10:00-13:00",
    "phone_number": "061-520210",
    "email_address": "",
    "number_of_employees": "45",
    "number_of_students": "1017",
    "comments": "",
    "type": "school",
    "lat": "28.22842306",
    "long": "83.99062591",
    "location": "SRID=4326;POINT (83.99062591000001 28.22842306)"
  }
},
{
  "model": "risk_profile.education",
  "pk": 10102,
  "fields": {
    "name": "Sri Satya Sai English Boarding School",
    "operator_type": "private",
    "opening_hours": "Su-Th 10:00-16:00  Fr 10:00-13:00",
    "phone_number": "061-533666",
    "email_address": "",
    "number_of_employees": "15",
    "number_of_students": "274",
    "comments": "",
    "type": "school",
    "lat": "28.2307687",
    "long": "83.99072226",
    "location": "SRID=4326;POINT (83.99072226 28.2307687)"
  }
},
{
  "model": "risk_profile.education",
  "pk": 10103,
  "fields": {
    "name": "Gyanubaba Higher Secondary School",
    "operator_type": "private",
    "opening_hours": "Su-Th 10:00-16:00  Fr 10:00-13:00",
    "phone_number": "061-521497",
    "email_address": "",
    "number_of_employees": "22",
    "number_of_students": "834",
    "comments": "",
    "type": "school",
    "lat": "28.2398441",
    "long": "83.98444082",
    "location": "SRID=4326;POINT (83.98444082 28.2398441)"
  }
},
{
  "model": "risk_profile.education",
  "pk": 10104,
  "fields": {
    "name": "Happy Boarding School",
    "operator_type": "private",
    "opening_hours": "Su-Th 10:00-16:00  Fr 10:00-13:00",
    "phone_number": "061-462156",
    "email_address": "",
    "number_of_employees": "17",
    "number_of_students": "313",
    "comments": "",
    "type": "school",
    "lat": "28.21150923",
    "long": "83.97233298",
    "location": "SRID=4326;POINT (83.97233298 28.21150923)"
  }
},
{
  "model": "risk_profile.education",
  "pk": 10105,
  "fields": {
    "name": "High Mount English Boarding School",
    "operator_type": "private",
    "opening_hours": "Su-Th 10:00-16:00  Fr 10:00-13:00",
    "phone_number": "9813854824",
    "email_address": "",
    "number_of_employees": "10",
    "number_of_students": "313",
    "comments": "",
    "type": "school",
    "lat": "28.24708357",
    "long": "83.9786424",
    "location": "SRID=4326;POINT (83.9786424 28.24708357)"
  }
},
{
  "model": "risk_profile.education",
  "pk": 10106,
  "fields": {
    "name": "Shree Ram Basic School",
    "operator_type": "government",
    "opening_hours": "su-fr 9:00-16:00",
    "phone_number": "61536576",
    "email_address": "",
    "number_of_employees": "10",
    "number_of_students": "421",
    "comments": "",
    "type": "school",
    "lat": "28.20912165",
    "long": "83.97955775",
    "location": "SRID=4326;POINT (83.97955775 28.20912165)"
  }
},
{
  "model": "risk_profile.education",
  "pk": 10107,
  "fields": {
    "name": "Spiral Galaxy Higher Secondary School",
    "operator_type": "private",
    "opening_hours": "09:00-17:00",
    "phone_number": "",
    "email_address": "",
    "number_of_employees": "37",
    "number_of_students": "483",
    "comments": "",
    "type": "school",
    "lat": "28.24464087",
    "long": "83.98364258",
    "location": "SRID=4326;POINT (83.98364257999999 28.24464087)"
  }
},
{
  "model": "risk_profile.education",
  "pk": 10108,
  "fields": {
    "name": "Suryodhaya English Boarding School",
    "operator_type": "private",
    "opening_hours": "09:30-15:45",
    "phone_number": "061-440105",
    "email_address": "sebs.pkr@gmail.com",
    "number_of_employees": "31",
    "number_of_students": "515",
    "comments": "",
    "type": "school",
    "lat": "28.25087039",
    "long": "83.98281368",
    "location": "SRID=4326;POINT (83.98281368000001 28.25087039)"
  }
},
{
  "model": "risk_profile.education",
  "pk": 10109,
  "fields": {
    "name": "Step By Step Higher Secondary School",
    "operator_type": "private",
    "opening_hours": "10:00-17:00",
    "phone_number": "",
    "email_address": "",
    "number_of_employees": "24",
    "number_of_students": "662",
    "comments": "",
    "type": "school",
    "lat": "28.21554999",
    "long": "83.97021248",
    "location": "SRID=4326;POINT (83.97021248 28.21554999)"
  }
},
{
  "model": "risk_profile.education",
  "pk": 10110,
  "fields": {
    "name": "Kantipur Academy of Science and Tecnology",
    "operator_type": "private",
    "opening_hours": "Su-Th 10:00-16:00  Fr 10:00-13:00",
    "phone_number": "061 527487",
    "email_address": "",
    "number_of_employees": "19",
    "number_of_students": "225",
    "comments": "",
    "type": "school",
    "lat": "28.18198218",
    "long": "84.02424872",
    "location": "SRID=4326;POINT (84.02424872 28.18198218)"
  }
},
{
  "model": "risk_profile.education",
  "pk": 10111,
  "fields": {
    "name": "Bhayareshwori Basic School",
    "operator_type": "government",
    "opening_hours": "Su-Th 10:00-16:00  Fr 10:00-13:00",
    "phone_number": "9846047235",
    "email_address": "",
    "number_of_employees": "8",
    "number_of_students": "220",
    "comments": "",
    "type": "school",
    "lat": "28.18734203",
    "long": "84.02481358",
    "location": "SRID=4326;POINT (84.02481358 28.18734203)"
  }
},
{
  "model": "risk_profile.education",
  "pk": 10112,
  "fields": {
    "name": "Bindyabasuni Ma V",
    "operator_type": "government",
    "opening_hours": "10:00-16:00",
    "phone_number": "061-440065  061-440603",
    "email_address": "vvhsspokhara16@gmail.com",
    "number_of_employees": "18",
    "number_of_students": "1109",
    "comments": "",
    "type": "school",
    "lat": "28.26254407",
    "long": "83.97973805",
    "location": "SRID=4326;POINT (83.97973804999999 28.26254407)"
  }
},
{
  "model": "risk_profile.education",
  "pk": 10113,
  "fields": {
    "name": "Saint Francis School",
    "operator_type": "private",
    "opening_hours": "Su-Fr 9:30-16:00",
    "phone_number": "061-431070/061-622686 061-5505070",
    "email_address": "",
    "number_of_employees": "28",
    "number_of_students": "1065",
    "comments": "",
    "type": "school",
    "lat": "28.17112883",
    "long": "84.02265859",
    "location": "SRID=4326;POINT (84.02265859000001 28.17112883)"
  }
},
{
  "model": "risk_profile.education",
  "pk": 10114,
  "fields": {
    "name": "Sukraraj Bala Bhadra Ma V",
    "operator_type": "government",
    "opening_hours": "Su-Th 10:00-16:00  Fr 10:00-13:00",
    "phone_number": "9856035769",
    "email_address": "",
    "number_of_employees": "25",
    "number_of_students": "682",
    "comments": "",
    "type": "school",
    "lat": "28.18135607",
    "long": "84.00996421",
    "location": "SRID=4326;POINT (84.00996421000001 28.18135607)"
  }
},
{
  "model": "risk_profile.education",
  "pk": 10115,
  "fields": {
    "name": "Sahid Awasiya Ma V",
    "operator_type": "government",
    "opening_hours": "Su-Fr 9:30-16:00",
    "phone_number": "9846035541",
    "email_address": "",
    "number_of_employees": "22",
    "number_of_students": "925",
    "comments": "",
    "type": "school",
    "lat": "28.16327741",
    "long": "84.03278201",
    "location": "SRID=4326;POINT (84.03278201000001 28.16327741)"
  }
},
{
  "model": "risk_profile.education",
  "pk": 10116,
  "fields": {
    "name": "Shivapuri Basic School",
    "operator_type": "government",
    "opening_hours": "Su-Th 10:00-16:00  Fr 10:00-13:00",
    "phone_number": "9846157055",
    "email_address": "",
    "number_of_employees": "",
    "number_of_students": "",
    "comments": "",
    "type": "school",
    "lat": "28.29250778",
    "long": "83.93984726",
    "location": "SRID=4326;POINT (83.93984725999999 28.29250778)"
  }
},
{
  "model": "risk_profile.education",
  "pk": 10117,
  "fields": {
    "name": "Bharati Bhawan Ma V",
    "operator_type": "government",
    "opening_hours": "Su-Th 10:00-16:00  Fr 10:00-13:00",
    "phone_number": "9846064036",
    "email_address": "",
    "number_of_employees": "28",
    "number_of_students": "834",
    "comments": "",
    "type": "school",
    "lat": "28.29184624",
    "long": "83.94720523",
    "location": "SRID=4326;POINT (83.94720522999999 28.29184624)"
  }
},
{
  "model": "risk_profile.education",
  "pk": 10118,
  "fields": {
    "name": "Saraswati Adarsha Vidhyashram",
    "operator_type": "private",
    "opening_hours": "Su-Th 10:00-16:00  Fr 10:00-13:00",
    "phone_number": "061-440425",
    "email_address": "sav_lamachaur@hotmail.com",
    "number_of_employees": "45",
    "number_of_students": "1383",
    "comments": "",
    "type": "school",
    "lat": "28.26107817",
    "long": "83.97060185",
    "location": "SRID=4326;POINT (83.97060184999999 28.26107817)"
  }
},
{
  "model": "risk_profile.education",
  "pk": 10119,
  "fields": {
    "name": "Gandaki Higher Secondary Boarding School",
    "operator_type": "community",
    "opening_hours": "09:00-17:00",
    "phone_number": "061-440398",
    "email_address": "gbs@phewamail.edu.np",
    "number_of_employees": "72",
    "number_of_students": "1120",
    "comments": "",
    "type": "school",
    "lat": "28.25850256",
    "long": "83.96889755",
    "location": "SRID=4326;POINT (83.96889754999999 28.25850256)"
  }
},
{
  "model": "risk_profile.education",
  "pk": 10120,
  "fields": {
    "name": "Samata Sikshya Niketan",
    "operator_type": "private",
    "opening_hours": "10:00-04:00",
    "phone_number": "+977 9856033465",
    "email_address": "",
    "number_of_employees": "33",
    "number_of_students": "1936",
    "comments": "",
    "type": "school",
    "lat": "28.22614099",
    "long": "83.97949067",
    "location": "SRID=4326;POINT (83.97949067 28.22614099)"
  }
},
{
  "model": "risk_profile.education",
  "pk": 10121,
  "fields": {
    "name": "Shanti Niketan School",
    "operator_type": "private",
    "opening_hours": "10:00-04:00",
    "phone_number": "061-551636",
    "email_address": "shantiniketan062@gmail.com",
    "number_of_employees": "23",
    "number_of_students": "490",
    "comments": "",
    "type": "school",
    "lat": "28.22144935",
    "long": "83.9773692",
    "location": "SRID=4326;POINT (83.9773692 28.22144935)"
  }
},
{
  "model": "risk_profile.education",
  "pk": 10122,
  "fields": {
    "name": "Srijana Higher Secondary School",
    "operator_type": "private",
    "opening_hours": "10:00-17:00",
    "phone_number": "",
    "email_address": "",
    "number_of_employees": "31",
    "number_of_students": "2203",
    "comments": "",
    "type": "school",
    "lat": "28.21147746",
    "long": "83.9783506",
    "location": "SRID=4326;POINT (83.9783506 28.21147746)"
  }
},
{
  "model": "risk_profile.education",
  "pk": 10123,
  "fields": {
    "name": "Gyan Ganga Academy",
    "operator_type": "private",
    "opening_hours": "Su-Th 10:00-16:00  Fr 10:00-13:00",
    "phone_number": "061-540177",
    "email_address": "",
    "number_of_employees": "",
    "number_of_students": "200",
    "comments": "",
    "type": "school",
    "lat": "28.19222293",
    "long": "84.02266588",
    "location": "SRID=4326;POINT (84.02266588000001 28.19222293)"
  }
},
{
  "model": "risk_profile.education",
  "pk": 10124,
  "fields": {
    "name": "Mankamana Boarding School",
    "operator_type": "private",
    "opening_hours": "Su-Th 10:00-16:00  Fr 10:00-13:00",
    "phone_number": "061-521697 061-523765",
    "email_address": "",
    "number_of_employees": "22",
    "number_of_students": "513",
    "comments": "",
    "type": "school",
    "lat": "28.2315197",
    "long": "83.99546934",
    "location": "SRID=4326;POINT (83.99546934 28.2315197)"
  }
},
{
  "model": "risk_profile.education",
  "pk": 10125,
  "fields": {
    "name": "Diamond Higher Sceondary Boarding School",
    "operator_type": "private",
    "opening_hours": "Su-Fr 06:00-17:00",
    "phone_number": "061-560146",
    "email_address": "diamondhighersecschool@gmail.com",
    "number_of_employees": "34",
    "number_of_students": "1879",
    "comments": "",
    "type": "school",
    "lat": "28.16371438",
    "long": "84.06224297",
    "location": "SRID=4326;POINT (84.06224297 28.16371438)"
  }
},
{
  "model": "risk_profile.education",
  "pk": 10126,
  "fields": {
    "name": "Lekhnath Memorial English Boarding School",
    "operator_type": "private",
    "opening_hours": "Su-Th 10:00-16:00  Fr 10:00-13:00",
    "phone_number": "061-561327",
    "email_address": "",
    "number_of_employees": "17",
    "number_of_students": "570",
    "comments": "",
    "type": "school",
    "lat": "28.16957785",
    "long": "84.05264345",
    "location": "SRID=4326;POINT (84.05264345000001 28.16957785)"
  }
},
{
  "model": "risk_profile.education",
  "pk": 10127,
  "fields": {
    "name": "Nawajyoti Sanat Durga Basic School",
    "operator_type": "government",
    "opening_hours": "Mo-Fr 10:00-16:00",
    "phone_number": "9856061749",
    "email_address": "",
    "number_of_employees": "9",
    "number_of_students": "313",
    "comments": "",
    "type": "school",
    "lat": "28.16617716",
    "long": "84.08114775",
    "location": "SRID=4326;POINT (84.08114775 28.16617716)"
  }
},
{
  "model": "risk_profile.education",
  "pk": 10128,
  "fields": {
    "name": "Ram Jyoti Ma V",
    "operator_type": "government",
    "opening_hours": "Su-Th 10:00-16:00  Fr 10:00-13:00",
    "phone_number": "9846031196",
    "email_address": "",
    "number_of_employees": "11",
    "number_of_students": "438",
    "comments": "",
    "type": "school",
    "lat": "28.1806208",
    "long": "84.03421945",
    "location": "SRID=4326;POINT (84.03421944999999 28.1806208)"
  }
},
{
  "model": "risk_profile.education",
  "pk": 10129,
  "fields": {
    "name": "Sagarmatha Nikentan School",
    "operator_type": "private",
    "opening_hours": "Su-Th 10:00-16:00  Fr 10:00-13:00",
    "phone_number": "",
    "email_address": "",
    "number_of_employees": "30",
    "number_of_students": "1066",
    "comments": "",
    "type": "school",
    "lat": "28.21967089",
    "long": "83.98957925",
    "location": "SRID=4326;POINT (83.98957925000001 28.21967089)"
  }
},
{
  "model": "risk_profile.education",
  "pk": 10130,
  "fields": {
    "name": "Pokhara Public School",
    "operator_type": "private",
    "opening_hours": "Su-Th 10:00-16:00  Fr 10:00-13:00",
    "phone_number": "",
    "email_address": "",
    "number_of_employees": "40",
    "number_of_students": "1340",
    "comments": "",
    "type": "school",
    "lat": "28.19271187",
    "long": "84.01901711",
    "location": "SRID=4326;POINT (84.01901710999999 28.19271187)"
  }
},
{
  "model": "risk_profile.education",
  "pk": 10131,
  "fields": {
    "name": "Little Angel School",
    "operator_type": "private",
    "opening_hours": "Su-Fr 10:00-16:00",
    "phone_number": "9856082603",
    "email_address": "",
    "number_of_employees": "12",
    "number_of_students": "312",
    "comments": "",
    "type": "school",
    "lat": "28.28407315",
    "long": "83.95139049",
    "location": "SRID=4326;POINT (83.95139048999999 28.28407315)"
  }
},
{
  "model": "risk_profile.education",
  "pk": 10132,
  "fields": {
    "name": "Chandika Basic School",
    "operator_type": "government",
    "opening_hours": "Su-Th 10:00-16:00  Fr 10:00-13:00",
    "phone_number": "061-441014",
    "email_address": "",
    "number_of_employees": "7",
    "number_of_students": "44",
    "comments": "",
    "type": "school",
    "lat": "28.25664739",
    "long": "83.9821585",
    "location": "SRID=4326;POINT (83.9821585 28.25664739)"
  }
},
{
  "model": "risk_profile.education",
  "pk": 10133,
  "fields": {
    "name": "Nilgiri English Boarding School",
    "operator_type": "private",
    "opening_hours": "10:00-16:00",
    "phone_number": "",
    "email_address": "",
    "number_of_employees": "24",
    "number_of_students": "675",
    "comments": "",
    "type": "school",
    "lat": "28.21935659",
    "long": "83.98515796",
    "location": "SRID=4326;POINT (83.98515796 28.21935659)"
  }
},
{
  "model": "risk_profile.education",
  "pk": 10134,
  "fields": {
    "name": "Sunflower English Boarding school",
    "operator_type": "private",
    "opening_hours": "Su-Th 10:00-16:00  Fr 10:00-13:00",
    "phone_number": "9846167221",
    "email_address": "",
    "number_of_employees": "20",
    "number_of_students": "708",
    "comments": "",
    "type": "school",
    "lat": "28.23501849",
    "long": "83.98361096",
    "location": "SRID=4326;POINT (83.98361095999999 28.23501849)"
  }
},
{
  "model": "risk_profile.education",
  "pk": 10135,
  "fields": {
    "name": "Kalika Ma V",
    "operator_type": "government",
    "opening_hours": "Su-Th 10:00-16:00  Fr 10:00-13:00",
    "phone_number": "061-431141",
    "email_address": "",
    "number_of_employees": "46",
    "number_of_students": "4272",
    "comments": "",
    "type": "school",
    "lat": "28.2012854",
    "long": "83.99923709",
    "location": "SRID=4326;POINT (83.99923708999999 28.2012854)"
  }
},
{
  "model": "risk_profile.education",
  "pk": 10136,
  "fields": {
    "name": "Sitala Ma V",
    "operator_type": "government",
    "opening_hours": "Su-Th 10:00-16:00  Fr 10:00-13:00",
    "phone_number": "9846050602",
    "email_address": "",
    "number_of_employees": "26",
    "number_of_students": "392",
    "comments": "",
    "type": "school",
    "lat": "28.21819854",
    "long": "84.00126738",
    "location": "SRID=4326;POINT (84.00126738 28.21819854)"
  }
},
{
  "model": "risk_profile.education",
  "pk": 10137,
  "fields": {
    "name": "Mount Everest Boarding School",
    "operator_type": "private",
    "opening_hours": "Su-Th 10:00-16:00  Fr 10:00-13:00",
    "phone_number": "9846075855",
    "email_address": "",
    "number_of_employees": "19",
    "number_of_students": "185",
    "comments": "",
    "type": "school",
    "lat": "28.21433157",
    "long": "83.98442021",
    "location": "SRID=4326;POINT (83.98442021 28.21433157)"
  }
},
{
  "model": "risk_profile.education",
  "pk": 10138,
  "fields": {
    "name": "Bicramshila Buddhist Gumba",
    "operator_type": "government",
    "opening_hours": "Su-Th 10:00-16:00  Fr 10:00-13:00",
    "phone_number": "9846046619",
    "email_address": "",
    "number_of_employees": "6",
    "number_of_students": "113",
    "comments": "",
    "type": "school",
    "lat": "28.26154633",
    "long": "83.95666388",
    "location": "SRID=4326;POINT (83.95666387999999 28.26154633)"
  }
},
{
  "model": "risk_profile.education",
  "pk": 10139,
  "fields": {
    "name": "Riverdale Secondary School",
    "operator_type": "private",
    "opening_hours": "Su-Th 10:00-16:00  Fr 10:00-13:00",
    "phone_number": "061-441065",
    "email_address": "riverdale2051@gmail.com",
    "number_of_employees": "12",
    "number_of_students": "891",
    "comments": "",
    "type": "school",
    "lat": "28.28279639",
    "long": "83.99023151",
    "location": "SRID=4326;POINT (83.99023151 28.28279639)"
  }
},
{
  "model": "risk_profile.education",
  "pk": 10140,
  "fields": {
    "name": "Annapurna Basic School",
    "operator_type": "government",
    "opening_hours": "Su-Fr 10:00-16:00",
    "phone_number": "9846201886",
    "email_address": "",
    "number_of_employees": "3",
    "number_of_students": "94",
    "comments": "",
    "type": "school",
    "lat": "28.20559108",
    "long": "83.96870968",
    "location": "SRID=4326;POINT (83.96870968 28.20559108)"
  }
},
{
  "model": "risk_profile.education",
  "pk": 10141,
  "fields": {
    "name": "Nabin Ma V",
    "operator_type": "government",
    "opening_hours": "Su-Th 10:00-16:00  Fr 10:00-13:00",
    "phone_number": "9856022603",
    "email_address": "",
    "number_of_employees": "23",
    "number_of_students": "1579",
    "comments": "",
    "type": "school",
    "lat": "28.22679777",
    "long": "83.98571944",
    "location": "SRID=4326;POINT (83.98571944 28.22679777)"
  }
},
{
  "model": "risk_profile.education",
  "pk": 10142,
  "fields": {
    "name": "Nawa Deep English Boarding School",
    "operator_type": "private",
    "opening_hours": "Su-Th 10:00-16:00  Fr 10:00-13:00",
    "phone_number": "9856033788",
    "email_address": "",
    "number_of_employees": "22",
    "number_of_students": "713",
    "comments": "",
    "type": "school",
    "lat": "28.20241424",
    "long": "84.00517938",
    "location": "SRID=4326;POINT (84.00517938 28.20241424)"
  }
},
{
  "model": "risk_profile.education",
  "pk": 10143,
  "fields": {
    "name": "Baseline Academy",
    "operator_type": "private",
    "opening_hours": "Su-Th 10:00-16:00  Fr 10:00-13:00",
    "phone_number": "9804140477",
    "email_address": "",
    "number_of_employees": "26",
    "number_of_students": "882",
    "comments": "",
    "type": "school",
    "lat": "28.20599113",
    "long": "84.01519646",
    "location": "SRID=4326;POINT (84.01519646 28.20599113)"
  }
},
{
  "model": "risk_profile.education",
  "pk": 10144,
  "fields": {
    "name": "Maula Islamic Samudayak Basic School",
    "operator_type": "government",
    "opening_hours": "Su-Th 10:00-16:00  Fr 10:00-13:00",
    "phone_number": "9846532726",
    "email_address": "",
    "number_of_employees": "12",
    "number_of_students": "246",
    "comments": "",
    "type": "school",
    "lat": "28.20944764",
    "long": "84.00988139",
    "location": "SRID=4326;POINT (84.00988139 28.20944764)"
  }
},
{
  "model": "risk_profile.education",
  "pk": 10145,
  "fields": {
    "name": "Balvidhya Mandir Secondary Boarding School",
    "operator_type": "private",
    "opening_hours": "Su-Th 10:00-16:00  Fr 10:00-13:00",
    "phone_number": "",
    "email_address": "",
    "number_of_employees": "17",
    "number_of_students": "351",
    "comments": "",
    "type": "school",
    "lat": "28.20897233",
    "long": "84.00873284",
    "location": "SRID=4326;POINT (84.00873283999999 28.20897233)"
  }
},
{
  "model": "risk_profile.education",
  "pk": 10146,
  "fields": {
    "name": "Laxmi Basic School",
    "operator_type": "government",
    "opening_hours": "Su-Th 10:00-16:00  Fr 10:00-13:00",
    "phone_number": "9846114251",
    "email_address": "",
    "number_of_employees": "9",
    "number_of_students": "",
    "comments": "",
    "type": "school",
    "lat": "28.1951946",
    "long": "83.91875664",
    "location": "SRID=4326;POINT (83.91875664 28.1951946)"
  }
},
{
  "model": "risk_profile.education",
  "pk": 10147,
  "fields": {
    "name": "Bal Prabhat Boardiing School",
    "operator_type": "private",
    "opening_hours": "Su-Th 10:00-16:00  Fr 10:00-13:00",
    "phone_number": "615262237",
    "email_address": "balparbhat@gmail.com",
    "number_of_employees": "25",
    "number_of_students": "602",
    "comments": "",
    "type": "school",
    "lat": "28.21875853",
    "long": "83.98615905",
    "location": "SRID=4326;POINT (83.98615905 28.21875853)"
  }
},
{
  "model": "risk_profile.education",
  "pk": 10148,
  "fields": {
    "name": "Bhawani Kalika Ma V",
    "operator_type": "government",
    "opening_hours": "Su-Th 10:00-16:00  Fr 10:00-13:00",
    "phone_number": "9856021947",
    "email_address": "",
    "number_of_employees": "30",
    "number_of_students": "401",
    "comments": "",
    "type": "school",
    "lat": "28.19581416",
    "long": "84.03234671",
    "location": "SRID=4326;POINT (84.03234671 28.19581416)"
  }
},
{
  "model": "risk_profile.education",
  "pk": 10149,
  "fields": {
    "name": "Gyan Bhumi Ma V",
    "operator_type": "government",
    "opening_hours": "10:00-05:00",
    "phone_number": "98460023784",
    "email_address": "",
    "number_of_employees": "15",
    "number_of_students": "625",
    "comments": "",
    "type": "school",
    "lat": "28.23109004",
    "long": "83.99161597",
    "location": "SRID=4326;POINT (83.99161597 28.23109004)"
  }
},
{
  "model": "risk_profile.education",
  "pk": 10150,
  "fields": {
    "name": "Boudha Sikshya Aadhyan Kendra",
    "operator_type": "government",
    "opening_hours": "Su-Th 10:00-16:00  Fr 10:00-13:00",
    "phone_number": "",
    "email_address": "",
    "number_of_employees": "",
    "number_of_students": "22",
    "comments": "",
    "type": "school",
    "lat": "28.21085959",
    "long": "83.99489071",
    "location": "SRID=4326;POINT (83.99489071000001 28.21085959)"
  }
},
{
  "model": "risk_profile.education",
  "pk": 10151,
  "fields": {
    "name": "Well Known Academy",
    "operator_type": "private",
    "opening_hours": "Su-Th 10:00-16:00  Fr 10:00-13:00",
    "phone_number": "",
    "email_address": "",
    "number_of_employees": "22",
    "number_of_students": "448",
    "comments": "",
    "type": "school",
    "lat": "28.18419711",
    "long": "84.00316219",
    "location": "SRID=4326;POINT (84.00316219 28.18419711)"
  }
},
{
  "model": "risk_profile.education",
  "pk": 10152,
  "fields": {
    "name": "Saint Mary's English Boarding School",
    "operator_type": "private",
    "opening_hours": "Su-Th 10:00-16:00  Fr 10:00-13:00",
    "phone_number": "061-431745",
    "email_address": "",
    "number_of_employees": "67",
    "number_of_students": "1992",
    "comments": "",
    "type": "school",
    "lat": "28.19446876",
    "long": "83.99274972",
    "location": "SRID=4326;POINT (83.99274972000001 28.19446876)"
  }
},
{
  "model": "risk_profile.education",
  "pk": 10153,
  "fields": {
    "name": "Lekhnath Bhibhuti English Boarding School",
    "operator_type": "private",
    "opening_hours": "9:30-16:00",
    "phone_number": "61432336",
    "email_address": "",
    "number_of_employees": "34",
    "number_of_students": "380",
    "comments": "",
    "type": "school",
    "lat": "28.20014405",
    "long": "83.99743025",
    "location": "SRID=4326;POINT (83.99743024999999 28.20014405)"
  }
},
{
  "model": "risk_profile.education",
  "pk": 10154,
  "fields": {
    "name": "Childrens Academy",
    "operator_type": "private",
    "opening_hours": "10:00-17:00",
    "phone_number": "061-527082",
    "email_address": "",
    "number_of_employees": "21",
    "number_of_students": "546",
    "comments": "",
    "type": "school",
    "lat": "28.21136675",
    "long": "84.01214395",
    "location": "SRID=4326;POINT (84.01214395 28.21136675)"
  }
},
{
  "model": "risk_profile.education",
  "pk": 10155,
  "fields": {
    "name": "Good Sephard English Boarding School",
    "operator_type": "private",
    "opening_hours": "09:00-03:00",
    "phone_number": "61431200",
    "email_address": "",
    "number_of_employees": "22",
    "number_of_students": "331",
    "comments": "",
    "type": "school",
    "lat": "28.19122695",
    "long": "84.00971828",
    "location": "SRID=4326;POINT (84.00971828 28.19122695)"
  }
},
{
  "model": "risk_profile.education",
  "pk": 10156,
  "fields": {
    "name": "Pal Ewam Nagyal Monastic School",
    "operator_type": "private",
    "opening_hours": "Su-Th 10:00-16:00  Fr 10:00-13:00",
    "phone_number": "",
    "email_address": "",
    "number_of_employees": "",
    "number_of_students": "",
    "comments": "",
    "type": "school",
    "lat": "28.23281717",
    "long": "83.9246275",
    "location": "SRID=4326;POINT (83.9246275 28.23281717)"
  }
},
{
  "model": "risk_profile.education",
  "pk": 10157,
  "fields": {
    "name": "Mertopolitan Academy",
    "operator_type": "private",
    "opening_hours": "09:00-17:00",
    "phone_number": "9856077603",
    "email_address": "",
    "number_of_employees": "22",
    "number_of_students": "454",
    "comments": "",
    "type": "school",
    "lat": "28.20943868",
    "long": "83.99890006",
    "location": "SRID=4326;POINT (83.99890006 28.20943868)"
  }
},
{
  "model": "risk_profile.education",
  "pk": 10158,
  "fields": {
    "name": "Chhorepatan Ma V",
    "operator_type": "government",
    "opening_hours": "9:00-17:00",
    "phone_number": "9856010286",
    "email_address": "",
    "number_of_employees": "63",
    "number_of_students": "3217",
    "comments": "",
    "type": "school",
    "lat": "28.18996294",
    "long": "83.95628071",
    "location": "SRID=4326;POINT (83.95628071 28.18996294)"
  }
},
{
  "model": "risk_profile.education",
  "pk": 10159,
  "fields": {
    "name": "Fishtail Higher Secondary School",
    "operator_type": "private",
    "opening_hours": "09:00-17:00",
    "phone_number": "",
    "email_address": "",
    "number_of_employees": "27",
    "number_of_students": "673",
    "comments": "",
    "type": "school",
    "lat": "28.19546711",
    "long": "83.9725554",
    "location": "SRID=4326;POINT (83.9725554 28.19546711)"
  }
},
{
  "model": "risk_profile.education",
  "pk": 10160,
  "fields": {
    "name": "Pardi Ma V",
    "operator_type": "government",
    "opening_hours": "09:00-17:00",
    "phone_number": "9846278943",
    "email_address": "",
    "number_of_employees": "18",
    "number_of_students": "1282",
    "comments": "",
    "type": "school",
    "lat": "28.1976697",
    "long": "83.97511862",
    "location": "SRID=4326;POINT (83.97511862 28.1976697)"
  }
},
{
  "model": "risk_profile.education",
  "pk": 10161,
  "fields": {
    "name": "Janaprakash Ma V",
    "operator_type": "government",
    "opening_hours": "Su-Th 10:00-16:00  Fr 10:00-13:00",
    "phone_number": "9856061374",
    "email_address": "janaparkash2017@gamil.com",
    "number_of_employees": "38",
    "number_of_students": "1447",
    "comments": "",
    "type": "school",
    "lat": "28.15076569",
    "long": "84.06524755",
    "location": "SRID=4326;POINT (84.06524755 28.15076569)"
  }
},
{
  "model": "risk_profile.education",
  "pk": 10162,
  "fields": {
    "name": "Dynamic Academy",
    "operator_type": "private",
    "opening_hours": "Su-Fr 09:00-15:15",
    "phone_number": "61537808",
    "email_address": "",
    "number_of_employees": "36",
    "number_of_students": "",
    "comments": "",
    "type": "school",
    "lat": "28.20712851",
    "long": "83.97567321",
    "location": "SRID=4326;POINT (83.97567321 28.20712851)"
  }
},
{
  "model": "risk_profile.education",
  "pk": 10163,
  "fields": {
    "name": "Tribhuwan Shanti Ma V",
    "operator_type": "government",
    "opening_hours": "Su-Th 10:00-16:00  Fr 10:00-13:00",
    "phone_number": "9856030402",
    "email_address": "",
    "number_of_employees": "29",
    "number_of_students": "1091",
    "comments": "",
    "type": "school",
    "lat": "28.1455918",
    "long": "84.0821261",
    "location": "SRID=4326;POINT (84.0821261 28.1455918)"
  }
},
{
  "model": "risk_profile.education",
  "pk": 10164,
  "fields": {
    "name": "Gorkha English Boarding School",
    "operator_type": "private",
    "opening_hours": "Su-Th 10:00-16:00  Fr 10:00-13:00",
    "phone_number": "9846656236",
    "email_address": "",
    "number_of_employees": "25",
    "number_of_students": "359",
    "comments": "",
    "type": "school",
    "lat": "28.25057118",
    "long": "83.98447056",
    "location": "SRID=4326;POINT (83.98447056000001 28.25057118)"
  }
},
{
  "model": "risk_profile.education",
  "pk": 10165,
  "fields": {
    "name": "Pokhara Learners Academy",
    "operator_type": "private",
    "opening_hours": "09:00-17:00",
    "phone_number": "",
    "email_address": "",
    "number_of_employees": "20",
    "number_of_students": "662",
    "comments": "",
    "type": "school",
    "lat": "28.20209176",
    "long": "83.97373493",
    "location": "SRID=4326;POINT (83.97373493000001 28.20209176)"
  }
},
{
  "model": "risk_profile.education",
  "pk": 10166,
  "fields": {
    "name": "Siddha Paropakar Baudhik Gurukul Ashram",
    "operator_type": "government",
    "opening_hours": "Su-Th 10:00-16:00  Fr 10:00-13:00",
    "phone_number": "9851052245",
    "email_address": "",
    "number_of_employees": "5",
    "number_of_students": "56",
    "comments": "",
    "type": "school",
    "lat": "28.17929472",
    "long": "83.99160747",
    "location": "SRID=4326;POINT (83.99160747000001 28.17929472)"
  }
},
{
  "model": "risk_profile.education",
  "pk": 10167,
  "fields": {
    "name": "Anjuli English Boarding School",
    "operator_type": "private",
    "opening_hours": "10:00-16:05",
    "phone_number": "061-527588",
    "email_address": "anjuliboarding@gmail.com",
    "number_of_employees": "34",
    "number_of_students": "420",
    "comments": "",
    "type": "school",
    "lat": "28.24162617",
    "long": "83.98569028",
    "location": "SRID=4326;POINT (83.98569028 28.24162617)"
  }
},
{
  "model": "risk_profile.education",
  "pk": 10168,
  "fields": {
    "name": "Sharaswati Basic School",
    "operator_type": "government",
    "opening_hours": "Su-Th 10:00-16:00  Fr 10:00-13:00",
    "phone_number": "9846044256",
    "email_address": "",
    "number_of_employees": "24",
    "number_of_students": "336",
    "comments": "",
    "type": "school",
    "lat": "28.21191274",
    "long": "84.00216646",
    "location": "SRID=4326;POINT (84.00216646 28.21191274)"
  }
},
{
  "model": "risk_profile.education",
  "pk": 10169,
  "fields": {
    "name": "Sainik Awasiya Mahavidyalaya",
    "operator_type": "government",
    "opening_hours": "09:00-17:00",
    "phone_number": "",
    "email_address": "",
    "number_of_employees": "66",
    "number_of_students": "1924",
    "comments": "",
    "type": "school",
    "lat": "28.22409644",
    "long": "83.99506957",
    "location": "SRID=4326;POINT (83.99506957 28.22409644)"
  }
},
{
  "model": "risk_profile.education",
  "pk": 10170,
  "fields": {
    "name": "Kanya Ma V",
    "operator_type": "government",
    "opening_hours": "Su-Th 10:00-16:00  Fr 10:00-13:00",
    "phone_number": "061-520291",
    "email_address": "",
    "number_of_employees": "16",
    "number_of_students": "636",
    "comments": "",
    "type": "school",
    "lat": "28.23248227",
    "long": "83.99108604",
    "location": "SRID=4326;POINT (83.99108604 28.23248227)"
  }
},
{
  "model": "risk_profile.education",
  "pk": 10171,
  "fields": {
    "name": "Guru Kul Vidhyasadhan",
    "operator_type": "private",
    "opening_hours": "09:00-17:00",
    "phone_number": "",
    "email_address": "",
    "number_of_employees": "30",
    "number_of_students": "759",
    "comments": "",
    "type": "school",
    "lat": "28.21796874",
    "long": "83.98805885",
    "location": "SRID=4326;POINT (83.98805885 28.21796874)"
  }
},
{
  "model": "risk_profile.education",
  "pk": 10172,
  "fields": {
    "name": "Siddhartha Lovedale English Boarding School",
    "operator_type": "private",
    "opening_hours": "09:00-17:00",
    "phone_number": "61533249",
    "email_address": "",
    "number_of_employees": "20",
    "number_of_students": "474",
    "comments": "",
    "type": "school",
    "lat": "28.22145917",
    "long": "83.99017337",
    "location": "SRID=4326;POINT (83.99017336999999 28.22145917)"
  }
},
{
  "model": "risk_profile.education",
  "pk": 10173,
  "fields": {
    "name": "Akala Basic School",
    "operator_type": "government",
    "opening_hours": "Su-Th 10:00-16:00  Fr 10:00-13:00",
    "phone_number": "9846031126",
    "email_address": "",
    "number_of_employees": "7",
    "number_of_students": "188",
    "comments": "",
    "type": "school",
    "lat": "28.27317431",
    "long": "83.95725373",
    "location": "SRID=4326;POINT (83.95725373000001 28.27317431)"
  }
},
{
  "model": "risk_profile.education",
  "pk": 10174,
  "fields": {
    "name": "Shining Star Secondary Boarding School",
    "operator_type": "private",
    "opening_hours": "10:00-16:00",
    "phone_number": "",
    "email_address": "",
    "number_of_employees": "24",
    "number_of_students": "623",
    "comments": "",
    "type": "school",
    "lat": "28.21300085",
    "long": "83.96359758",
    "location": "SRID=4326;POINT (83.96359758 28.21300085)"
  }
},